id,nom_estab,latitud,longitud
2192399,ABASTECEDORA DE MATERIALES PARA LA CONSTRUCCION LAGUNA,19.5280847,-99.0519814
2151895,ACABADOS COLONIALES,19.67980143,-98.99615134
2146846,ACABADOS DE BARRO COLONIAL,19.61737379,-98.9834801
8924078,ACEROS Y CEMENTOS DE MEXICO,19.54330092,-99.07103594
1998430,ACEROS Y CEMENTOS GALPE,19.66664216,-99.00421708
6437596,APASCO MATERIALES RIVERA,19.61930974,-98.98988819
6752445,ARX BUY SELL,19.53725024,-99.0638259
2025046,BA헲S Y COCINAS SAN AGUSTIN,19.52775454,-99.05036997
9275032,BODEGA DE  MATERIALES DE  CONSTRUCCION R1,19.54669692,-99.03469066
2115398,BODEGA DE LOS MATERIALES PARA CONSTRUCCION EL CALVARIO,19.60366648,-99.05631979
7610571,BODEGA DE MATERIAL PARA CONSTRUCCION SIN NOMBRE,19.51190926,-99.02125237
8457253,BODEGA DE MATERIALES LAS JOYAS,19.51858042,-99.07202709
2096622,BODEGA DE MATERIALES PARA LA CONSTRUCCION,19.52033099,-99.04201168
6729181,BODEGA DE TLAPALERIA MIKE,19.53546078,-99.02384193
6945743,BODEGA TLAPALERIA GONZALEZ,19.57450009,-99.07083664
6936645,CALENTADORES SOLARES,19.67432041,-99.00239781
2060794,CASA DE MATERIALES CASTOR EL CONSTRUCTOR,19.52656107,-99.02951109
2050535,CASA DE MATERIALES CEMENTO CRUZ AZUL,19.49688944,-99.05499025
6937816,CASA DE MATERIALES DE CONSTRUCCION URBI EXPRESS,19.65534544,-99.01949524
2282059,CASA DE MATERIALES DUARTE,19.49456306,-99.02378522
2266740,CASA DE MATERIALES GUTIERREZ HERMANOS,19.67887865,-98.99031602
8457304,CASA DE MATERIALES MADI,19.66319129,-99.01055023
6921927,CASA DE MATERIALES SIN NOMBRE,19.60189447,-99.01326055
2047298,CASA GAM ACABADOS CONSTRUTIVOS,19.49913575,-99.05151309
8711121,CASA MARTINEZ,19.64625118,-98.99975989
2146901,CELOSIAS Y ACABADOS SAGITARIO,19.49464949,-99.04459931
8348417,CEMENTO,19.65187435,-99.06494625
8883940,CEMENTO SAN MARTIN,19.53461659,-99.05293036
6265363,CEMENTOS Y FIERROS MEXEDO SA DE CV,19.67939352,-99.03670694
7121705,CONSTRU PLAZA,19.56572267,-99.02633244
8840711,CONSTRUCCIONES Y REMODELACIONES JARDINES,19.59678767,-99.01694146
2263123,CONSTRUCTORA 28 SA DE CV,19.70913726,-98.97845044
9304857,CONSTRURAMA,19.52638656,-99.03162351
2147376,DEPOSITO DE ARENA GRAVA,19.55550764,-99.07959308
2290335,DISTRIBUIDOR R1,19.52169689,-99.05835488
2182213,DISTRIBUIDORA DE MATERIALES PARA CONSTRUCCI흁MORELOS,19.53269587,-99.04856223
8687110,DISTRIBUIDORA DE MATERIALES TERRANOVA,19.61481673,-99.0620218
6347575,DISTRIBUIDORA GALES,19.72112283,-98.97111172
9334138,DISTRIBUIDORA GALES,19.72063267,-98.97000092
7029039,DISTRIBUIDORA IMPULSA,19.60027056,-99.0526094
2001702,EL CONSTRUCTOR MATERIALES PARA CONSTRUCCION,19.53406794,-99.019179
2118010,ESTIBOS VILLA SE헲R VENTA DE VARILLA Y ALAMBRADO.,19.60830824,-99.06653498
7610754,EXPENDIO DE MATERIALES PARA LACONSTRUCCION,19.49803506,-99.03044838
1998392,FAMA MATERIALES Y ACABADOS,19.63045584,-99.06028561
2306822,FERRE MATERIALES LAS AMERICAS,19.58627593,-99.00965501
2067839,FERRETERIA ALVIR,19.63679191,-99.00227403
2297458,FERRETERIA TORNILLOS Y RESORTES,19.60294197,-99.05154772
1991692,FERRETERIA Y TLAPALERIA COMERCIAL GALINDO,19.77271558,-98.98128606
6350938,GRUPO COMERCIAL AMORI,19.55084932,-99.04722888
8406461,HETERO CICLICO,19.62615976,-99.07776099
8921937,HOLDING PARA VENTAS A GOBIERNO S A DE C V,19.5637047,-99.04588
6512237,JARDINES DE MORELOS,19.59684729,-99.00668351
7469971,LAVADEROO,19.527889,-99.05049474
8925242,MAGA,19.5379109,-99.0425617
2060483,MAGNEMEX,19.53156827,-99.07437426
2297840,MARMOL EL GRANITO FENIX,19.59347044,-99.04398474
8496803,MATERIAL DE CONSTRUCCION LA PIE,19.6617035,-98.99392998
6937089,MATERIAL PARA CONSTRUCCION,19.68288104,-99.01534496
2057647,MATERIAL PARA CONSTRUCCION,19.49775204,-99.04603181
2017799,MATERIAL PARA CONSTRUCCION,19.558532,-99.0822398
8867641,MATERIAL PARA CONSTRUCCION SIN NOMBRE,19.58430104,-99.05090184
7881592,MATERIALE D CONSTRUCCION LA LEGUA,19.71463978,-98.97103954
7082055,MATERIALEA PARA CONSTRUCCION ALVARADO,19.64193622,-99.07080666
2049456,MATERIALES,19.49785157,-99.05646559
8854068,MATERIALES ADONAI,19.54650295,-99.02391522
2008289,MATERIALES AGUILAR,19.51464353,-99.02373164
7882227,MATERIALES ARCO,19.6916076,-98.98555042
2067340,MATERIALES ARTELI,19.62203276,-99.04698519
8406459,MATERIALES BRAG,19.6311803,-99.07138526
1968684,MATERIALES CERVANTES,19.60912685,-99.01969886
2112519,MATERIALES CORONA,19.49151756,-99.02969063
8654093,MATERIALES COSTRUCION GFS,19.62101567,-99.04651793
1978760,MATERIALES DE CONSTRUCCION,19.67725476,-99.03385225
2144854,MATERIALES DE CONSTRUCCION CASA ORTEGA,19.51323838,-99.05576
7029026,MATERIALES DE CONSTRUCCION LOPEZ,19.60038158,-99.05794638
2013148,MATERIALES DE CONSTRUCCION LOS CHOPOS,19.62148102,-99.05504067
8854315,MATERIALES DE CONSTRUCION CASAS,19.49344968,-99.03229869
2016003,MATERIALES DEFIN,19.52834778,-99.04584248
2087464,MATERIALES DEL RIO,19.55520495,-99.03584796
2012268,MATERIALES DON RAFA,19.63126115,-99.05327797
7028890,MATERIALES EL CALVARIO,19.60374178,-99.05615922
2168045,MATERIALES EL CONSENTIDO,19.56169615,-99.09085979
2066033,MATERIALES EL FRANCES,19.50464619,-99.02287357
6436977,MATERIALES EL JAROCHO,19.5452299,-99.02191847
8390629,MATERIALES EL PROGRESO,19.77141903,-99.00130562
8904823,MATERIALES EL TIGRE.,19.61048897,-99.06560904
2171104,MATERIALES ESCORPION,19.59401284,-98.99971343
2158765,MATERIALES ESPIOZA,19.49839931,-99.03430538
1992685,MATERIALES FLORES,19.54450172,-99.02238964
2051816,MATERIALES FONSECA,19.64398406,-98.98850442
2030385,MATERIALES FRONTERA,19.50191597,-99.07037258
7121637,MATERIALES GABO,19.56292294,-99.02225173
6919719,MATERIALES GARCIA,19.62172056,-99.03708026
8496409,MATERIALES GARCIA,19.53943789,-99.0413019
6924980,MATERIALES GONZALEZ,19.54443948,-99.07910346
2111916,MATERIALES GUADIANA,19.49444904,-99.02431043
1974718,MATERIALES GUZMAN,19.51733703,-99.01549651
2028385,MATERIALES JARDINES,19.54469839,-99.04188065
6937297,MATERIALES JIREH,19.66482405,-99.00895677
2287794,MATERIALES JUSTO,19.52544516,-99.03843415
7712932,MATERIALES KIRIZ,19.50521248,-99.01799486
2313025,MATERIALES LA HORMIGUITA,19.63347189,-99.00855025
1965278,MATERIALES LA IDEAL,19.52138995,-99.02030338
2290452,MATERIALES LA POPULAR,19.52401514,-99.0533
8923558,MATERIALES LA ROCA,19.68541063,-98.95895222
1998598,MATERIALES LALOS,19.63065786,-99.05849212
7007680,MATERIALES LATORRE,19.5638663,-99.09026514
8687118,MATERIALES LOPEZ,19.59978722,-99.06286882
2299903,MATERIALES LOS CARRIZOS,19.614217,-99.04689073
2001374,MATERIALES LUGO,19.76656178,-98.97070055
8153483,MATERIALES MARTINEZ,19.61720599,-98.99920357
2294716,MATERIALES MENDOZA,19.55433648,-99.06970316
6986625,MATERIALES MENDOZA,19.53848223,-99.07863377
2080641,MATERIALES MONTUFAR,19.6178179,-99.04930512
1995446,MATERIALES MORELOS,19.63583615,-99.07115655
2163626,MATERIALES NACHITO,19.56152606,-99.01579185
7121827,MATERIALES OLVERA,19.56693749,-99.03265667
2115629,MATERIALES PARA CONSTRCCION GUSTAVO,19.60307355,-99.05682037
8882530,MATERIALES PARA CONSTRUCCION,19.50512064,-99.05328644
2298306,MATERIALES PARA CONSTRUCCION,19.64332527,-99.07161412
8854768,MATERIALES PARA CONSTRUCCI흁,19.54743786,-99.03075887
1999638,MATERIALES PARA CONSTRUCCION,19.51823031,-99.02422895
2281942,MATERIALES PARA CONSTRUCCION,19.49551643,-99.02699938
2123324,MATERIALES PARA CONSTRUCCION  VILLANUEVA,19.64005645,-99.00203607
2295830,MATERIALES PARA CONSTRUCCION CARRANCO,19.50925929,-99.07755559
2141236,MATERIALES PARA CONSTRUCCION CASA GARCIA,19.51441925,-99.05176252
8390584,MATERIALES PARA CONSTRUCCION CASA GOMEZ,19.5142385,-99.0652263
2177518,MATERIALES PARA CONSTRUCCION CHIAPAS,19.53532701,-99.04595634
1995030,MATERIALES PARA CONSTRUCCION CORREA,19.49323859,-99.03399451
7127927,MATERIALES PARA CONSTRUCCION DICA,19.63349598,-99.05692823
2012239,MATERIALES PARA CONSTRUCCION EL ZAUS,19.63157977,-99.05278761
2175963,MATERIALES PARA CONSTRUCCION GABY,19.52146174,-99.02134542
2124461,MATERIALES PARA CONSTRUCCION HUGO,19.51433447,-99.04529763
2268948,MATERIALES PARA CONSTRUCCION LA VIA,19.63299855,-99.02645609
2306081,MATERIALES PARA CONSTRUCCION LARIOS,19.55977053,-99.02100176
1972369,MATERIALES PARA CONSTRUCCION LOS GUEROS,19.5210506,-99.01672884
2290016,MATERIALES PARA CONSTRUCCI흁 LUNA,19.54112081,-99.0640179
2161503,MATERIALES PARA CONSTRUCCION OSO PARDO,19.52524561,-99.01913338
2012383,MATERIALES PARA CONSTRUCCION RECURSOS,19.63128286,-99.05260907
2178800,MATERIALES PARA CONSTRUCCI흁 ROCHA,19.5371527,-99.04542775
2097518,MATERIALES PARA CONSTRUCCION RODRIGUEZ,19.68311074,-98.96970885
2146813,MATERIALES PARA CONSTRUCCION SAN LUIS,19.49446037,-99.04468367
7127733,MATERIALES PARA CONSTRUCCION TORRES II,19.63594075,-99.05880677
2166236,MATERIALES PARA CONSTRUCCION VAZQUEZ,19.62834332,-99.01083794
2128214,MATERIALES PARA CONSTRUCCION ZAMORA,19.57020194,-99.02377648
7610611,MATERIALES PARA CONSTRUCIION LUPITA,19.52162042,-99.02134599
2176268,MATERIALES PARA CONSTRUCI흁 R1,19.53691856,-99.04375981
2167806,MATERIALES PARA CONTRUCCION SIN NOMBRE,19.56128767,-99.02131384
8406768,MATERIALES PARA LA CONSTRUCCION,19.57595727,-99.05346315
8653916,MATERIALES PARA LA CONSTRUCCION EL AGUILA,19.61381776,-99.05917159
7122899,MATERIALES PARA LA CONSTRUCCI흁 ELOY,19.59022965,-99.04253013
2286932,MATERIALES PARA LA CONSTRUCCI흁 HIDALGO,19.51134475,-99.05124451
2031444,MATERIALES PARA LA CONSTRUCCION SIN NOMBRE,19.5649472,-99.0197468
2114453,MATERIALES PARA LA CONSTRUCCION ZARAGOZA,19.69843206,-98.96548103
2105939,MATERIALES PARA LA CONSTRUCION SIN NOMBRE,19.5156942,-99.07207532
2010664,MATERIALES PLAYAS,19.60214255,-99.00141207
6348630,MATERIALES PLAZA ARAGON SA,19.52226677,-99.03342073
8153935,MATERIALES RICHARD,19.63839763,-99.06330687
7610721,MATERIALES SAMY,19.52939803,-99.01736463
2113206,MATERIALES SAN MATEO,19.67670671,-98.96760044
8883827,MATERIALES SAN MIGUEL,19.53318721,-99.05421803
6925316,MATERIALES SAN PEDRO,19.53738607,-99.08274235
7027645,MATERIALES SICARTSA,19.61302792,-99.05180981
7121816,MATERIALES SONORA,19.56522975,-99.02856122
7518583,MATERIALES TEOCALLIS,19.53913017,-99.01634901
2066689,MATERIALES TOLUCA,19.62288022,-99.04745659
2041129,MATERIALES VAZQUEZ,19.50053244,-99.05862678
2012069,MATERIALES VILLA DE GUADALUPE EL SURTIDOR,19.52003074,-99.05986735
8548449,MATERIALES ZAURY,19.58719765,-99.00447529
1994970,MATETIALES ESPINOZA,19.60679591,-98.99090059
6348263,MAYORISTA EN ACEROS Y CEMENTOS,19.68444794,-98.99172429
8348964,PATRIMONIO HOY,19.59776787,-99.05126864
2020529,PLAFONES E INSTALACIONES,19.52939302,-99.04853888
6373508,PLAFORAMA DF - ECATEPEC,19.57706873,-99.04224932
6373510,PLAFORAMA DF ARAGON,19.49623572,-99.04395726
6347948,PLOBANOS METROPOLITANOS,19.52174791,-99.08616446
8876518,PROVEDORA MEXICANA DE MATERIALES,19.52181778,-99.08321789
2061788,PROVEEDORA DE LA CONSTRUCCION OSO,19.49880752,-99.04564948
2310252,RECUBRIMIENTOS Y ACABADOS SIN NOMBRE,19.60526637,-99.01260972
8905366,RECUBRIMINTOS MARCUZA,19.6059695,-99.01207552
2290428,REFRACTARIOS Y AISLAMIENTOS TERMICOS INDUSTRIALES,19.52914174,-99.05681086
2144472,SURTIDOR DE MATERIALES,19.51458793,-99.05321552
9304437,TABIQUES Y MATERIALES SANTA CRUZ,19.52564419,-99.03558409
9292930,TENDENZZA,19.52184029,-99.08900122
2262564,TIRADERO ELENA ARENA TEPETATE GRAVA ETC,19.76837599,-98.99296548
2282105,TLAPALERIA,19.49858717,-99.03021263
8905467,TLAPALERIA CRUZ VER,19.61056512,-98.99652891
1993757,TLAPALERIA DON TO헲,19.63923097,-99.07120728
2138133,TLAPALERIA EL CLAVITO,19.6014053,-99.02386845
1967523,TLAPALERIA FRAGOSO,19.56565943,-99.04975112
2087955,TLAPALERIA LETY,19.6244259,-98.99134384
2022222,TLAPALERIA MEXICO,19.55460426,-99.08325771
2019617,TLAPALERIA SANTA FE,19.5945887,-99.00634711
2132417,TLAPALERIA SERVI LUIS,19.61140779,-99.01648902
2308064,TLAPALERIA TORRES,19.6029964,-98.98914848
2033437,TLAPALERIA VAZQUEZ,19.50336736,-99.0628794
2308329,TLAPALERIA Y HERRAMIENTAS ROLO,19.61329182,-98.99820954
2303754,TLAPALERIA Y MATERIALES PARA CONSTRUCCION,19.59185769,-99.0284364
2156810,TLAPALERIA Y MATERIALES PARA CONSTRUCCION LOS HEROES,19.61568499,-99.02049911
2160498,TLAPALERIA Y MATERIALES PARA LA CONSTRUCCION ANGEL,19.55386595,-99.07404757
1986604,TLAPALERIA Y MATERIALES PARA LA CONSTRUCCION GRANITO DE ARENA,19.59123814,-99.03831515
2163240,TLAPALERIA Y MATERIALES ROCHA,19.55504122,-99.0706818
8279055,TLAPALERIA Y VENTA DE MATERIALES PARA CONSTRUCION ACUARIO,19.63086923,-99.01228884
1993618,TLAPALERIA YOLI,19.49613664,-99.035073
8907622,TORNILLOS ELEMENTOS,19.6024473,-98.99087443
2092161,TORNILLOS JAJASA,19.61315582,-99.01013233
2019445,TRABAJOS DE TERRAZO Y GRANITO,19.50858112,-99.07048293
7027792,TRASPORTES RIVERA,19.61655718,-99.05488077
1985077,UNIVERSAL TORNILLOS,19.53018693,-99.07618817
6945078,VENTA DE MATERIALES DE CONSTRUCCION,19.55419878,-99.06146762
6945069,VENTA DE MATERIALES PARA CONSTRUCCI흁 EL SANTUARIO,19.5665206,-99.05434779
2058533,VENTA DE MATERIALES PARA LA CONSTRUCCION MARTINEZ,19.53445797,-99.08137979
2289393,VENTA DE MATERIALES PETREO Y OTROS,19.53722677,-99.0431656
7127736,VENTA DE TABLAROCA,19.63687346,-99.0561057
7456494,VENTA Y RENTA DE CIMBRA,19.54201216,-99.03856254
7713659,ZAYRON MATERIALES PARA CONSTRUCCION,19.50709306,-99.0358393
6699422,208 Ecatepec Llano de la Torre,19.53335541,-99.06755422
6790703,210 Tecamac Llano de la Torre,19.71085213,-98.9752092
6790704,214 Av Central Llano de la Torre,19.50833212,-99.03956243
2299313,AAPLORE,19.62345103,-99.04780735
2145311,AB DISE헲 Y CONSTRUCCION S.A. DE C.V.,19.49427087,-99.04045936
2297571,ACCESORIOS DE PLOMERIA,19.60403529,-99.0543863
2191758,ACEROS AMERICA,19.52809279,-99.05296323
2122712,ACEROS Y CEMENTOS MORELOS,19.59543711,-99.00375527
6922842,ACEROS Y PERFILES ANGULOS Y SOLERAS,19.60996522,-98.99616354
2169881,ACEROS Y PERFILES GARCIA,19.53755821,-99.04603939
2185175,ACEROS Y PERFILES OGUN,19.58136862,-99.04472902
2004259,AGLOMERADOS HIMALAYA,19.63317814,-99.05365766
7158300,ALAMBRADOS VICTORIA,19.64610302,-99.06134139
2299651,ALFISA PVC,19.61731479,-99.06481957
2287097,ALMACEN DE EQUIPOS ELECTRICOS,19.51740854,-99.04844854
2039795,AMPI DECORACIONES,19.52373441,-99.0327817
2087298,ANILLOS LARA,19.54780571,-99.0736095
2263602,ARTICULOS DEL HOGAR,19.71182732,-98.9730001
9209527,AVENTA DE TUERCAS,19.54744559,-99.04850819
6357562,AZULEMEX,19.59371445,-99.03853611
6779606,AZULEMEX,19.65876705,-99.00475347
6350682,AZULEMEXECATEPEC 2,19.53492921,-99.06388997
2267526,BANDAS Y BALEROS CELORIO,19.66643846,-99.00392027
2263526,BH COMERCIALIZADORA DE MATERIAL EL텎TRICO SA DE CV,19.70968649,-98.97590638
8489395,BIOPRO,19.51348061,-99.03223935
1978111,BIRLOS Y TORNILLOS,19.51566128,-99.06138955
2110772,BIRLOS Y TORNILLOS NEPTUNO,19.51967453,-99.04937414
2295138,BOBEGA DE MATERIAL DE CONSTRUCCION,19.52544211,-99.06866185
6693986,BODEGA,19.52189141,-99.0550235
2015573,BODEGA DE CALENTADORES,19.7595864,-98.95042767
8897543,BODEGA DE FERRETERIA SANTA CRUZ,19.53163996,-99.01638678
2285824,BODEGA DE LA TLAPALERIA DON LUIS,19.51674988,-99.0171606
8876195,BODEGA DE LA TLAPALERIA ZAURY,19.58754977,-99.00421948
7469159,BODEGA DE MANGUERAS INDUSTRIALES,19.50831524,-99.05663354
2114006,BODEGA DE MATERIALES D0N JULIO,19.60190157,-99.00029949
2267507,BODEGA DE PVC,19.66435569,-99.00407798
6946388,BODEGA DE TINACOS,19.53641063,-99.06819473
2295297,BODEGA DE TINACOS,19.5363734,-99.06812403
2289819,BODEGA DE TLAPALERIA BETY,19.53065718,-99.03907683
2310911,BODEGA DE TLAPALERIA GUZMAN,19.63253021,-98.99132424
2192236,BODEGA DE TUBOS Y CONEXIONES,19.66416552,-99.00400253
8924855,BODEGA ECATEPEC,19.51225715,-99.02213338
7713212,BODEGA ECATEPEC,19.51213923,-99.02183478
2056886,BODEGA ECATEPEC MOCTEZUMA,19.6150879,-99.06226478
2310011,BODEGA FERRE -ABASTOS,19.61226426,-99.00468908
2047487,BODEGA FORTALEZA ECATEPEC,19.50955655,-99.02218811
8883880,BODEGA TLAPALERIA IMAN,19.53204469,-99.05180326
8883878,BODEGA TLAPALERIA IMAN,19.5321744,-99.05202135
8883879,BODEGA TLAPALERIA IMAN,19.53213183,-99.05194977
2181795,BODEGA TLAPALERIA MEDINA REYES,19.67958092,-99.01581968
2295290,C.N. INGENIERIA INDUSTRIAL,19.53367973,-99.06759074
9120242,CALENTADORES SOLARES,19.52077139,-99.03304458
6922090,CALENTADORES SOLARES,19.60826009,-99.01117089
8854666,CALENTADORES SOLARES,19.51318434,-99.03146034
7713408,CALENTADORES SOLARES 2008,19.49397474,-99.04490032
8923831,CALENTADORES SOLARES ECOLOGICOS,19.5331681,-99.06970742
2124374,CALENTADORES SOLARES HIDASOL,19.60250776,-99.05662854
7121616,CALENTADORES SOLARES SOPRAY,19.58550462,-99.009766
1990269,CASA CHAVEZ,19.57603498,-99.04533065
6357755,CASA CRAVIOTO,19.57015462,-99.05169937
1979871,CASA DE LOS TORNILLOS,19.59944866,-99.0354808
2009815,CASA DE MATERIALES CORTES,19.66062614,-98.9909156
2009262,CASA DE MATERIALES LUMAR,19.75925575,-98.96922309
2166911,CASA DE MATERIALES PARA CONSTRUCCION ZACATECAS,19.62908111,-99.00657771
2070876,CASA DE MATERIALES SIN NOMBRE,19.62083187,-99.05597781
8854340,CASA DE TORNILLOS,19.51058373,-99.066572
2288383,CASA DE TORNILLOS AZTECA,19.53315856,-99.01685894
7027739,CASA DEL PLOMERO,19.62100588,-99.0547518
2052234,CASA DEL PLOMERO,19.60231583,-98.99529765
2090804,CASA DEL TORNILLO,19.55189676,-99.07662866
1983665,CASA DEL TORNILLO,19.62143153,-99.00191707
2105692,CASA FERNANDEZ,19.60780703,-99.01147995
2286274,CASA GARCIA,19.52496128,-99.02405924
2087436,CASA GUTIERREZ,19.59436863,-99.03787734
6945289,CASA GUTIERREZ,19.55368586,-99.07320971
2171184,CASA LEON,19.59385437,-98.99918207
2099639,CASA MARTINES,19.64625124,-98.99976019
2141927,CASA TEJEDA,19.51626336,-99.05231478
2310053,CASA VAZQUEZ,19.60780956,-99.01278282
2040508,CASMAR FERRETERIAS,19.63442105,-98.98924534
2018669,CEMENTERA 5 ESTRELLAS,19.55406927,-99.07847767
2298522,CEMENTERA GALDIER,19.64178472,-99.05893818
7158299,CEMENTOS ECATEPEC,19.6461931,-99.06139933
1973086,CENTRAL DE TORNILLOS,19.56753931,-99.04714037
7081564,CENTRO DE DISTRIBUCION CEMENTO MONTEZUMA,19.64596302,-99.06127447
2010203,CENTRO LAMINERO CENTER LAM,19.6320695,-99.05317476
7518485,CENTRO TORNILLERO Y HULERO,19.54780212,-99.04364568
2267715,CENTRO TORNILLERO Y HULERO MYM,19.66871852,-99.00373894
2066913,CERRAJERIA CELESTINO,19.52713547,-99.03621984
8924126,CHANTAL,19.56583476,-99.04758488
2050268,COMERCIAL DE SUJECCIONES BIRLOS Y RODAJAS,19.61715448,-99.06456129
2176192,COMERCIALIZADORA DE TORNILLOS,19.57587467,-99.03726774
6743976,COMERCIALIZADORA ELECTRICA TEXCOCO SA DE CV,19.61289959,-99.05049075
2050191,COMERCIALIZADORA FERRETERA,19.61721047,-99.06465148
8854583,COMERCIALIZADORA HEYCA,19.54562003,-99.0413245
2082701,COMERCIALIZADORA MU헲Z,19.61635358,-99.04500277
2290850,COMERCIALIZADORA OSMI,19.54480083,-99.044595
2023947,COMERCIALIZADORA PANTOJA RODRIGUEZ,19.50791252,-99.03791832
2283900,COMERCIALIZADORA Y HERRAJES LIEBANO,19.50952106,-99.06434268
7518427,COMERCIO AL POR MENOR EN FERRETER페S Y TLAPALER페S,19.54709473,-99.02963861
8394570,COMERCIO AL POR MENOR EN FERRETER페S Y TLAPALER페S,19.68061592,-98.96645218
6924785,COMERCIO AL POR MENOR EN FERRETER페S Y TLAPALER페S,19.54246896,-99.07546822
2266723,COMERCIO AL POR MENOR EN FERRETER페S Y TLAPALER페S,19.67738788,-98.9951884
8390561,CONECTIHOGAR,19.61789016,-99.00310333
2267757,CONSTRUCCIONES METALICAS IPAILERIA GARCAR SA DE CV,19.67072969,-99.00299838
2142096,COVAPLA,19.53799549,-99.02661913
2128985,CREMERIA ALEXIS,19.57300859,-99.07052658
2162890,CUATRO HERMANOS,19.54407957,-99.04593729
2267520,DCOREN,19.66543291,-99.00397979
2311721,DE TODO TLAPALERIA,19.64659885,-98.98933848
2076996,DIREGAS,19.52000172,-99.0852666
8105520,DISTIBUIDORA DE TORNILLOS MAURICK,19.51061489,-99.02405788
2114766,DISTRIBUIDORA DE FORJAS EL VIAJANTE,19.70994788,-98.97578096
2291038,DISTRIBUIDORA DE GAS Y TUBERIA,19.54424601,-99.03961831
7027845,DISTRIBUIDORA DE HERRAMIENTAS BRIKA,19.61195113,-99.0441148
2000633,DISTRIBUIDORA DE HERRAMIENTAS ELECTRICAS ECATEPEC,19.63545418,-99.07465062
2310679,DISTRIBUIDORA DE HERRAMIENTAS TRUPER,19.62815573,-99.00254431
1973045,DISTRIBUIDORA DE TORNILLOS SIN NOMBRE,19.62801419,-99.00256867
1967954,DISTRIBUIDORA FERRETERA REYES HERMANOS,19.65325553,-99.06581399
2285986,DISTRIBUIDORA GES ALBORADA,19.51324271,-99.03160997
1990843,EL HOMBRE HERRAMIENTA,19.77365175,-98.98124534
8935362,EL HOMBRE HERRAMIENTA,19.7736904,-98.98100681
1994442,EL SURTIDOR,19.54779339,-99.0488369
9124595,EL SURTIDOR TORNILLOS Y TLAPALERIA,19.5675322,-99.06117942
1966791,ELECTRICA ACUARIO,19.56457014,-99.05113816
2311571,ELECTRICA CUAUHTEMOC,19.64541695,-98.9879935
2267911,ELECTRICA DEL NORTE,19.67555711,-99.03153812
2266281,ELECTRICA E ILIMINACION LA ECONOMICA,19.68246105,-98.99406675
2288859,ELECTRICA HERNANDEZ,19.54044055,-99.03958405
2284594,ELECTRICA LUCIERNAGA,19.50368105,-99.05010902
2263281,ELECTRICA MEGA,19.71351167,-98.97390097
2162761,EL텎TRICA MONARCA,19.5980627,-99.04227706
2283452,ELECTRICA PACO,19.49099072,-99.03062753
2303320,ELECTRICA PACO,19.57593579,-99.04416354
2267391,ELECTRICA RIOS VENTA DE MATERIAL PARA INSTALACIONES ELECTRICAS,19.66917517,-99.00543885
2294303,ELECTRICA SAN PEDRO SAYER LACK,19.54256361,-99.07492686
2063621,ELECTRICA SANTANA,19.56347622,-99.05846431
2286152,ELECTRICA TESLA,19.52077139,-99.03304458
2305662,ELECTRICA UNIVERSAL,19.54773711,-99.04387419
2264663,ELECTRICIDAD PLOMERIA E ILUMINACION SIN NOMBRE,19.67999753,-98.96538343
2135156,ELECTRICO Y PLOMERIA VARGAS,19.50252014,-99.03942681
6868427,ELECTRO DISTRIBUIDORA BARRON SA DE CV,19.6731152,-99.02968994
1991265,ELECTR흁ICA ZAPATA,19.63797433,-99.05979091
2080155,ELECTRORECURSOS,19.62101634,-99.04633272
2296176,EQUIPO ELECTRICO INDUSTRIAL,19.52034047,-99.08441731
2299933,EQUIPOS DE COCINA BEKER,19.61304088,-99.04899029
2024156,EQUIPOS Y SOLDADURAS DEL VALLE,19.52783906,-99.05191923
8854621,ESTACIONARIOS PAFRAN,19.5332178,-99.06942368
2303314,FAMA ACABADOS,19.57486899,-99.04290928
1988890,FERRAMEX,19.58868732,-99.03917526
2094998,FERRE ALCA,19.60737665,-99.05489182
2132515,FERRE BRANDOM,19.60034785,-99.05831172
2036352,FERRE ELECTRICA XALA,19.54427036,-99.03934975
2291442,FERRE ELECTRICO EL CISNE,19.55284536,-99.08958238
2107821,FERRE ELECTRONICA,19.56504863,-99.05883077
2299321,FERRE HERRAJES SOTO,19.63039139,-99.05206822
2262629,FERRE HOME,19.77328148,-98.9816831
7906921,FERRE MARTINEZ,19.7655806,-98.96830455
8883997,FERRE MARY,19.52796334,-99.05068545
2300992,FERRE MATERIALES LA ESTRELLA,19.59829141,-99.0430407
2154076,FERRE OFERTAS,19.5389537,-99.07573139
8944069,FERRE POLO,19.49197822,-99.03087473
2012816,FERRE SAN PEDRO,19.75559907,-98.95981933
2106060,FERRE TLAPALERIA,19.56603651,-99.05873217
2025493,FERRE TLAPALERIA EL CISNE,19.5649028,-99.0870766
2008996,FERRE TLAPALERIA LA UNION,19.63519748,-99.05503142
6922926,FERRE TU,19.62601168,-98.99503053
2150462,FERRE VALDEZ,19.55293555,-99.07739609
8882744,FERRE XALOSTOC,19.53159529,-99.07008018
8687412,FERREACEROS DIZA,19.59339983,-99.04419395
2033380,FERREACEROS Y CEMENTOS DIMAC,19.50330763,-99.06230802
2072594,FERREBERNAL,19.55845407,-99.03110517
2312339,FERRECAR,19.647889,-98.99087052
7028092,FERRECRUZ,19.61842756,-99.05293509
7498428,FERREDETO2,19.60182282,-98.99129231
7121618,FERREELECTRICA GONZALEZ,19.58503078,-99.01024185
2009312,FERREGAS RECURSOS,19.63380612,-99.05418443
2156376,FERRELECTRICA ALVE,19.67758811,-98.99932133
7028082,FERRELECTRICA Y TLAPALERIA ANTARES,19.60865756,-99.05731548
7497745,FERREMAR,19.60195153,-99.00961165
2308921,FERREMAR,19.61434481,-99.00663972
8924959,FERREMARRIOS,19.4910299,-99.03119637
7456620,FERREMATERIALES,19.52036777,-99.04210232
7498328,FERRENAVA,19.59715108,-99.00709155
2149875,FERRENIPLE DEL CENTRO,19.54270691,-99.02532384
2297476,FERREPLOMERIA,19.6098988,-99.05841798
2298931,FERREPLOMERIA EL PROGRESO,19.63152903,-99.07194034
6775816,FERREPRECIOS OZUMBILLA,19.68095653,-98.99559604
6922552,FERRETERA LA PULGA,19.61787215,-99.00222134
2050831,FERRETERIA,19.59860229,-98.9937068
9095828,FERRETERIA,19.59736632,-98.99204094
7456932,FERRETERIA,19.54650444,-99.03986115
6925264,FERRETERIA,19.5443165,-99.08310219
2088334,FERRETERIA,19.62501882,-98.98906387
2310877,FERRETERIA,19.62571552,-98.99437357
8935940,FERRETERIA,19.62218515,-99.03359649
2111602,FERRETERIA ABASTOS RIOS,19.61092363,-99.00941262
8883667,FERRETERIA ACERO,19.5245473,-99.03242748
7121904,FERRETERIA AGREGADOS Y MATERIALES DEL NORTE,19.57362734,-99.03835719
8348959,FERRETERIA AGRICULTURA,19.60409854,-99.04896555
7882266,FERRETERIA AITANA,19.68695943,-98.97257048
1980451,FERRETERIA ALEJANDRA,19.60233051,-98.99891165
2310031,FERRETERIA ALVIR,19.60930741,-99.00981813
2049953,FERRETERIA CARRILLO,19.53829856,-99.08558564
2099264,FERRETERIA CASA MARTINEZ,19.54892868,-99.04501686
8289669,FERRETERIA CASA PEREZ,19.66960063,-99.02120635
8390379,FERRETERIA CEMELS,19.59451088,-99.03494804
2303704,FERRETERIA CEMELS,19.59408301,-99.03527572
2304688,FERRETERIA CENTRAL,19.55382538,-99.0187743
8897500,FERRETERIA CHAVEZ,19.4944733,-99.03871676
2187869,FERRETERIA CHIAPAS,19.5746522,-99.05720604
2069378,FERRETERIA CHOPOS,19.61913837,-99.05317203
2290950,FERRETER페 COMAFE,19.5410132,-99.04157268
7907277,FERRETERIA CRUSOL,19.77243752,-98.98088417
2052233,FERRETERIA CUAUHTEMOC,19.64258288,-98.98729842
2311559,FERRETERIA CUAUHTEMOC,19.6451233,-98.98775485
7881521,FERRETERIA DAKENNY,19.74352769,-98.95320304
2165751,FERRETERIA DEL CENTO,19.59793429,-99.04240136
1981489,FERRETERIA DEL VALLE,19.51456466,-99.05867868
8947619,FERRETERIA DEL VALLE,19.51595194,-99.05794474
2285040,FERRETERIA DON ABEL,19.50741945,-99.02313803
2265086,FERRETERIA DON QUIQUE,19.67784197,-98.96080617
2303040,FERRETERIA ECLIPSE,19.56484353,-99.05887406
2105914,FERRETERIA EL FENIX,19.60780703,-99.01147995
8924054,FERRETERIA EL GATO,19.62384657,-99.03842213
2038215,FERRETERIA EL GRA JEFE,19.52526587,-99.03211039
7127721,FERRETERIA EL PATRON,19.61009982,-99.07435576
2036154,FERRETERIA EL PUMA,19.71126267,-98.96671611
2091239,FERRETERIA EL REMACHE,19.5044983,-99.05171814
2182498,FERRETERIA EL REMACHE,19.51975123,-99.02847884
9101885,FERRETERIA ESMERALDA,19.52049093,-99.03035737
7122760,FERRETERIA FERREALIN,19.58247434,-99.04961286
2186349,FERRETERIA FERRENORTE,19.53015712,-99.05113694
8457420,FERRETERIA FERRESHOP,19.63599944,-99.026559
7122523,FERRETERIA FERRESHOP SAN CARLOS,19.57870531,-99.04718537
1992104,FERRETERIA FEYCO ACOZAC,19.77147062,-98.97945278
7028350,FERRETERIA FIX,19.60287868,-99.0573277
9098153,FERRETERIA FLOGAR,19.63771556,-99.04219215
8549181,FERRETERIA GAMA,19.5871481,-98.99957995
2057007,FERRETERIA GEMA,19.59483495,-99.00162988
2265107,FERRETERIA GENESIS,19.67445923,-98.96311845
2286440,FERRETERIA GONZALEZ,19.52681489,-99.03571527
2301712,FERRETERIA GONZALEZ,19.57184933,-99.07044913
2167915,FERRETERIA HEROES,19.54284832,-99.04908527
1984464,FERRETERIA HUGUIN,19.67621941,-99.02617149
8361684,FERRETER페 INDUSTRIAL,19.57914057,-99.0271801
2300155,FERRETERIA JOSE LUIS,19.6123229,-99.04874979
2307958,FERRETERIA LA CHIQUITA,19.59749312,-98.99390581
8153425,FERRETERIA LA FORTALEZA,19.61098679,-99.01178292
1978507,FERRETERIA LA HIGUERA,19.56064188,-99.0477283
9205396,FERRETERIA LA MAQUINA,19.68705942,-98.96655614
2001860,FERRETERIA LA TOSCANA,19.49213342,-99.03183062
2116331,FERRETERIA LA UNION,19.6942162,-98.9781757
8876398,FERRETERIA LA UNION,19.55493773,-99.07204452
1986637,FERRETERIA LA UNION,19.57563011,-99.04281978
2028683,FERRETERIA LAS GEMELAS,19.54894646,-99.08059541
2116839,FERRETERIA LH,19.55437807,-99.02762556
8936113,FERRETERIA LOS ANGELES,19.62690758,-99.03333123
2190533,FERRETERIA LUIS,19.67087786,-99.00381711
1995569,FERRETER페 LUPITA,19.59736491,-98.99203861
2107884,FERRETERIA MAPLOGAS,19.60510951,-99.01439641
2303398,FERRETERIA MAYAS,19.57549559,-99.04169875
2158770,FERRETERIA MELMAR,19.59093343,-99.00810836
2150659,FERRETERIA MENDOZA,19.49168311,-99.0436927
8883203,FERRETERIA MUEBLES Y SANITARIOS,19.55463911,-99.06462846
9193765,FERRETERIA MULLER,19.63381781,-99.00874688
2291627,FERRETERIA NORMA,19.56466794,-99.08689579
8457360,FERRETERIA OMWARN,19.6708655,-99.02332785
2053804,FERRETERIA ORMES,19.50017942,-99.05094103
9086830,FERRETERIA OZUMBILLA,19.63199033,-99.03017181
2282883,FERRETERIA POLIDIAMAN,19.49103606,-99.03952124
8923212,FERRETERIA PROVENZAL,19.69322675,-99.00764074
2023416,FERRETERIA R1,19.52895855,-99.05056654
7158296,FERRETERIA RECURSOS,19.64669539,-99.06176434
2192205,FERRETERIA RESENDIZ,19.57186928,-99.06000188
2062289,FERRETERIA ROMART,19.70887059,-98.97617422
8687136,FERRETERIA RUPLOP,19.60139888,-99.04059156
2101706,FERRETERIA SALOMON,19.64044767,-99.00028956
2297260,FERRETERIA SAN AGUSTIN,19.61256683,-99.06440074
2144390,FERRETERIA SANTA CRUZ,19.53163996,-99.01638678
6348632,FERRETER페 SANTANDER,19.515575,-99.08697203
7882562,FERRETERIA SANTO DOMINGO,19.68840543,-98.97527516
2262833,FERRETERIA SHOPPER 3T,19.76801834,-98.97421538
2001421,FERRETERIA SIN NOMBRE,19.548624,-99.05063676
8935627,FERRETERIA SN,19.6901517,-98.97937428
2111234,FERRETERIA SOAL,19.60935986,-99.01043861
2172848,FERRETERIA SOBERANES,19.56828982,-99.09186105
2307951,FERRETERIA SOLMENT,19.59785755,-98.99394574
2286227,FERRETERIA TAPPSA,19.52077139,-99.03304458
6936984,FERRETERIA TAURO,19.65816092,-99.00068575
2159852,FERRETERIA TLAPALERIA Y JARCIERIA,19.4944733,-99.03871676
9070819,FERRETERIA TODO PARA EL PLOMERO,19.62903237,-99.03810653
8278331,FERRETERIA TRUPER ELECTRIKA EKA,19.62184241,-98.98842432
2267854,FERRETERIA URBI,19.66332417,-99.03747743
8935897,FERRETERIA VENTURA,19.71315087,-98.97081101
8153641,FERRETERIA Y ARTICULOS PARA EL HOGAR,19.5758647,-99.06416883
1977407,FERRETERIA Y CONEXIONES LOS ALPES,19.67905841,-99.03682508
2161231,FERRETERIA Y HERRAJES HALCON,19.52391049,-99.02026572
2047983,FERRETERIA Y HERRAJES LA NUEVA,19.50909813,-99.02221721
6946281,FERRETERIA Y MATERIALES PALMER,19.53384455,-99.06719755
2302018,FERRETERIA Y MATERIALES SANCHEZ,19.55867715,-99.06892369
2298837,FERRETERIA Y PLOMERIA CARLOS,19.63924139,-99.07068393
7468890,FERRETERIA Y PLOMERIA CASA GOMEZ,19.50596952,-99.05541498
2267821,FERRETERIA Y PLOMERIA FLOGAR,19.63776664,-99.04272509
2154845,FERRETER페 Y TLAPALER페,19.5069397,-99.057399
2085905,FERRETERIA Y TLAPALERIA,19.55077596,-99.07565682
2146933,FERRETERIA Y TLAPALERIA COVA,19.49441071,-99.04470583
2286293,FERRETERIA Y TLAPALERIA GONZALEZ,19.52037796,-99.02899044
2018543,FERRETERIA Y TLAPALERIA KEVIN,19.53039308,-99.04484024
2173748,FERRETERIA Y TLAPALERIA LA CURVA,19.56678493,-99.08873576
8653984,FERRETERIA Y TLAPALERIA LA LUPITA,19.61329311,-99.06337184
2181807,FERRETER페 Y TLAPALERIA MEDINA REYES,19.67965762,-99.01586854
2139647,FERRETERIA Y TLAPALERIA MEJIA,19.57636579,-99.06329738
1971260,FERRETERIA Y TLAPALERIA PINEDA,19.77387205,-98.99969241
7027603,FERRETERIA Y TLAPALERIA SAN BENAMIN,19.60794658,-99.04314076
7028466,FERRETERIA Y TLAPALERIA TULPETLAC,19.57280892,-99.05361999
7154941,FERRETERIA Y TLAPALERIA URBINA,19.58858199,-99.01724769
2009706,FERRETERIA Y TLAPALERIA VERGEL,19.51339117,-99.03105422
2303894,FERRETERIA Y TORNILLERIA SIN NOMBRE,19.59111097,-99.02438051
2180701,FERRETERIA ZAMORA,19.68124785,-99.01199584
8153486,FERRETERIAS FIX,19.62123396,-99.0042295
7127401,FERRETERWOGT,19.63576596,-99.07452384
2266421,FERRETIP INOVA SA DE CV,19.68709089,-98.98978924
6348703,FERRETODO,19.55711334,-99.04917783
7469206,FERRETORNILLOS VALLE,19.50700731,-99.05756966
6348283,FERREXALOSTOC,19.53169423,-99.07342432
9359287,FERROELECTRICA HEROES,19.62591544,-99.03284707
6796117,FIX CHICONAUTLA,19.61787406,-98.99574856
6882827,FIX ECATEPEC,19.52924931,-99.05771785
2307978,GAMA DISTRIBUIDORA,19.59878303,-98.9979471
9081562,GAS INDUSTRIAL Y EQUIPO DE CORTE,19.50040103,-99.05098238
6351893,GERSA 134 recursos hidraulicos,19.63659834,-99.00230668
6347813,GRUPO DISTRIBUIDOR FERRETERO S.A. DE C.V.,19.49217618,-99.03672275
7468339,GRUPO FERRETERO ECATEPEC,19.50442163,-99.05107999
2165188,GRUPO PROLACO SA DE CV,19.57175196,-99.04291303
2262813,H & H MATERIALES PARA CONSTRUCCION,19.76791203,-98.97390279
2295080,H. R. IMPER,19.52952786,-99.07533906
2263287,HERGAR,19.71421023,-98.97357702
2295327,HERRAJES,19.53613734,-99.07132305
1971035,HERRAJES CAMACHO,19.60932452,-99.01941228
2065032,HERRAJES GUADIANA.,19.50244856,-99.04481879
1976905,HERRAJES HALCON,19.52015873,-99.05914718
2308022,HERRAJES JUHONDY,19.59694082,-98.99481792
2020040,HERRAJES LIBRA,19.53503094,-99.02793251
2040649,HERRAJES LIBRA,19.599722,-99.01047523
2267543,HERRAJES LOMA BONITA,19.66729828,-99.00416223
7882553,HERRAJES LOS BABUINOS,19.69231096,-98.9752166
7518505,HERRAJES MARTHE,19.55598865,-99.02516697
1993923,HERRAJES RUBEN,19.60627485,-98.99109971
2035538,HERRAJES Y BARNICES DE TECAMAC,19.7126654,-98.96664839
2080979,HERRAJES ZERME헲,19.61342067,-99.04749475
8934969,HERRAMIENTA Y SERVICIO DE TECAMAC,19.71102278,-98.97526519
2055182,HERRAMIENTAS AMBAR,19.53122198,-99.07148687
2300231,HERRAMIENTAS BERTADILLO,19.61334401,-99.04569383
2010305,HERRAMIENTAS DANIEL S,19.5687581,-99.04959107
8686846,HERRAMIENTAS DEL CARMEN,19.59028081,-99.0274694
2130401,HERRAMIENTAS GONZAS TOOLS,19.52367426,-99.06725055
2022071,HERRAMIENTAS LA SURTIDORA PATY,19.62296934,-99.07356118
6946269,HERRAMIENTAS PARA TORNO,19.53317323,-99.06967811
2299912,HERRAMIENTAS PE헤,19.61333782,-99.04841876
2018363,HERRAMIENTAS SAN FERMIN,19.61874483,-99.00409658
6348820,HOME DEPOT SUC. 8637 ECATEPEC,19.58087276,-99.04172488
6347077,HOME DEPOT SUC. 8645 TECAMAC,19.69870538,-98.9810701
6372316,HOME DEPOT SUC. 8647 ARAGON,19.53035298,-99.02892089
6936824,HOME SHEARLING,19.67737325,-99.02273543
2291029,HT TRUPPER,19.54449888,-99.03992842
6926068,HT&H TRUPER,19.54839516,-99.07347331
8925005,ILUMINACION ARAGON,19.5022749,-99.03878759
7713487,ILUMINACION ARAGON,19.50233224,-99.03893704
2061490,ILUMINACION LOPEZ,19.53716564,-99.03590333
2310568,ILUMINACION Y EQUIPO ELECTRICO SANDOVAL,19.6338497,-99.00207174
2127281,INDUSTRIAL TORNILLERA,19.60253769,-99.05081176
2298580,INSTALACIONES VARGAS,19.63862949,-99.06585339
8882476,JARCERIA,19.50146691,-99.04892256
9157168,JARCERIA,19.50141755,-99.04879298
2266434,JARCERIA NOEMI,19.67972717,-99.0017572
2062259,JARCIERIA TLAPALERIA Y PLOMERIA TAFOYA,19.53938298,-99.03756125
2264190,JARCIERIA TRAPITOS,19.68899376,-98.98106996
2080918,JIGONZA TLAPALERA Y PLOMERIA,19.61345075,-99.04717106
2094420,JM MOLDURAS,19.60974739,-99.05674949
6743783,KNOVA,19.57702685,-99.04130202
2035696,LA CASA DE LOS TORNILLOS,19.54392007,-99.0393547
2312802,LA CASA DE MULTICOSAS,19.63932175,-99.01138787
7611013,LA CASA DEL TORNILLO,19.52039834,-99.01701078
8959987,LA CASA DEL TORNILLO,19.64430372,-99.06077889
2289412,LA CASA DEL TORNILLO,19.53624235,-99.04403455
2023269,LA CASA DEL TORNILLO 2,19.52824494,-99.05121747
7081638,LA CASA DEL TORTILLO,19.63976809,-99.05648093
6939186,LA GARLOPA,19.63903585,-99.06860317
2130788,LA NUEVA CENTRAL FERRETERIA,19.69181878,-98.98212932
8289552,LA POTOSINA PLASTICOS Y JARCERIA,19.67194805,-99.0032319
2299711,LAMINAS Y PLOMERIA HIDALGO,19.61579228,-99.06238405
2303313,LGR TORNILLERA,19.57514545,-99.04287677
9355261,LOS MAESTROS PAPELERIA TLAPALERIA FERRETERIA,19.62601651,-99.03128008
7028011,MANGUERAS ERSA,19.6143645,-99.04830602
2192271,MANGUERAS Y CONEXIONES,19.66466268,-99.00405431
2033843,MANGUERAS Y CONEXIONES LA ESMERALDA,19.65293738,-99.00488585
1998877,MANGUERAS Y CONEXIONES MARTINEZ,19.77330088,-98.97319264
2196002,MANUFACTURAS INDUSTRIALES RZ,19.53207566,-99.07340705
2270055,MAT. DE CONSTRUCCI흁 CONSTRU EXPRESS,19.62730241,-99.03338705
1979892,MATERIAL DE CONSTRUCCION MANJARREZ,19.51413917,-99.01763912
1988723,MATERIAL DE PLOMERIA,19.77386687,-98.98126887
7713661,MATERIAL DE PLOMERIA PEQUE MATA,19.50435002,-99.03614951
6986648,MATERIAL DE PLOMERIA Y ELECTRICIDAD ATIZAPAN,19.50969716,-99.08752413
2301871,MATERIAL ELECTRICO,19.56936952,-99.06058689
2285172,MATERIAL ELECTRICO,19.50976921,-99.01599651
2070671,MATERIAL ELECTRICO EDGAR BAEZ,19.52877955,-99.04041781
2051285,MATERIAL ELECTRICO JARDINES DE MORELOS,19.59753273,-98.99442023
2022647,MATERIAL ELECTRICO LA UNICA,19.55994632,-99.08330912
2288453,MATERIAL EL텎TRICO LA UNI흁,19.53699982,-99.01892718
2287834,MATERIAL ELECTRICO QUEZADA,19.52388204,-99.04058165
2012908,MATERIAL ELECTRICO RIVERA,19.6277329,-99.06199278
2299825,MATERIAL ELECTRICO SBL,19.61654752,-99.05563495
2176345,MATERIAL ELECTRICO SIN NOMBRE,19.53677071,-99.04444802
2007584,MATERIAL ELECTRICO SIN NOMBRE,19.60329221,-98.986453
2012500,MATERIAL ELECTRICO Y DE PLOMERIA AVES,19.62950097,-99.05302842
2312759,MATERIAL ELECTRICO Y DE PLOMERIA SIN NOMBRE,19.63863136,-98.99738928
2149459,MATERIAL ELECTRICO Y TLAPALERIA EL CHINO,19.51173617,-99.05219023
2100772,MATERIAL PARA CARPINTER0 TODO PARA EL CARPINTERO,19.54692791,-99.04328608
2165794,MATERIAL PARA CONSTRUCCION,19.5523897,-99.06746252
2044972,MATERIAL PARA CONSTRUCCION,19.63835544,-99.04703315
6925832,MATERIAL PARA CONSTRUCCION LOS BORDOS,19.56108379,-99.08491571
1980438,MATERIAL PARA CONSTRUCCION Y TLAPALERIA LOS REYES,19.77356394,-98.98380027
1986666,MATERIAL PROMACO,19.57553435,-99.04283104
1983413,MATERIALES ACOSTA,19.64967012,-99.06599786
2270189,MATERIALES ALE,19.63019319,-99.04193683
2285236,MATERIALES ARIES,19.50825271,-99.01810693
2301261,MATERIALES ATIZAPAN,19.57865653,-99.0674184
6922285,MATERIALES AZTECA,19.59356862,-99.02499848
2113246,MATERIALES BUENDIA,19.67790651,-98.96804446
2087467,MATERIALES CARRERA,19.62521815,-98.99219445
2052317,MATERIALES CASA BLANCA,19.60262915,-98.99284018
2283902,MATERIALES CASA FLORES,19.50925947,-99.06370682
2301564,MATERIALES CASA GONZALEZ,19.57437863,-99.07115141
2309520,MATERIALES CASA JUREZ,19.62723519,-99.00877884
2057813,MATERIALES CASA PEREZ,19.64168337,-98.98439305
2265250,MATERIALES CASA RIOS,19.67602619,-98.96624025
2007685,MATERIALES CASA R펦S,19.63287672,-99.05935223
2055512,MATERIALES CECAR,19.5938075,-98.99820441
2028271,MATERIALES CONSTRUCCION VALLE,19.50687707,-99.06952108
2287679,MATERIALES DE CONSTRUCCION SONORA,19.52466172,-99.04588017
2302676,MATERIALES DE CONSTRUCCION Y TLAPALERIA ARIEL,19.56795676,-99.05078101
6986418,MATERIALES DE TLAPALERIA LAS TORRES,19.63472453,-99.03357599
2070015,MATERIALES DIAZ,19.62116979,-99.04645683
2141812,MATERIALES DIAZ,19.50045579,-99.03216567
2109830,MATERIALES DON LUPE,19.61275986,-99.04543265
2110629,MATERIALES DON PABLO,19.51981815,-99.04575968
2298875,MATERIALES DON ROQUE,19.63807818,-99.06639396
2138731,MATERIALES ECATEPEC,19.61409462,-98.99878133
1979981,MATERIALES EDGAR,19.6516612,-99.06481998
2037203,MATERIALES EL PUENTE,19.55804039,-99.08170933
2025853,MATERIALES EL TIGRE 2,19.61449778,-99.07951797
2102705,MATERIALES EL VERDUGO,19.49791155,-99.03060278
2268174,MATERIALES ELECTRICOS,19.64928835,-99.00646027
2114173,MATERIALES HERNANDEZ,19.55548041,-99.02430423
2152627,MATERIALES HIDALGO,19.54200477,-99.02489992
2266374,MATERIALES HIDALGO,19.68989548,-98.99412447
1997000,MATERIALES JIMENEZ,19.63892943,-99.06310561
2295957,MATERIALES LA BROCHA,19.52387059,-99.0683933
1972776,MATERIALES LA CENTRAL,19.55325504,-99.01891417
7121708,MATERIALES LA CRUZ,19.56742483,-99.02845272
2298355,MATERIALES LA ESPERANZA,19.63933186,-99.06924546
2009535,MATERIALES LA HERRADURA,19.63190532,-99.05703687
1965901,MATERIALES LA PANTERA,19.65666238,-99.06794032
1968570,MATERIALES LA POPULAR,19.52295718,-99.05375056
2172958,MATERIALES MANCILLA,19.56775054,-99.09072824
2061976,MATERIALES MENDOZA,19.63792109,-98.98010081
2309639,MATERIALES MORENA,19.62242293,-99.00993592
2111001,MATERIALES NUEVO ORIZONTE,19.60863267,-99.01092283
2189588,MATERIALES ORDO헨Z,19.5886289,-99.045903
2003053,MATERIALES ORTEGA,19.6293949,-99.06726766
2156075,MATERIALES OZUMBILLA,19.67689042,-99.00003932
7881530,MATERIALES PACHECO,19.75302195,-98.95532076
2167553,MATERIALES PARA CONSTRUCCI흁,19.55911711,-99.02332531
2057905,MATERIALES PARA CONSTRUCCION,19.4985435,-99.05028379
2024015,MATERIALES PARA CONSTRUCCION,19.50592551,-99.03931655
7127528,MATERIALES PARA CONSTRUCCION,19.63063143,-99.07152061
2284626,MATERIALES PARA CONSTRUCCION,19.50314543,-99.04773324
2080593,MATERIALES PARA CONSTRUCCION,19.61907461,-99.04653717
2114144,MATERIALES PARA CONSTRUCCION DON JULIO,19.60202835,-99.00010084
2262883,MATERIALES PARA CONSTRUCCION EL 45,19.77360382,-98.97576308
1992536,MATERIALES PARA CONSTRUCCION EL CHINO,19.5454872,-99.02231785
2145317,MATERIALES PARA CONSTRUCCION EL GUERO,19.55628958,-99.07606429
1971816,MATERIALES PARA CONSTRUCCION ELISEO,19.5377888,-99.03877731
1967993,MATERIALES PARA CONSTRUCCION FERMAC,19.77561133,-98.99867493
2029299,MATERIALES PARA CONSTRUCCION FUENTES,19.65630456,-99.00757131
2311053,MATERIALES PARA CONSTRUCCI흁 LA JOYA,19.62438639,-98.98537536
2284657,MATERIALES PARA CONSTRUCCION LA UNION,19.50526732,-99.04885008
2310119,MATERIALES PARA CONSTRUCCI흁 LA VICTORIA,19.60702204,-99.01429863
2167679,MATERIALES PARA CONSTRUCCION MENDOZA,19.59826824,-99.02768914
2051600,MATERIALES PARA CONSTRUCCI흁 SAN JUDAS TADEO,19.62180734,-99.05551403
2189693,MATERIALES PARA CONSTRUCCION SAN MIGUEL ARACNGEL,19.55396996,-99.02027412
1970464,MATERIALES PARA CONSTRUCCION SANCHEZ,19.77808073,-99.00546248
2012485,MATERIALES PARA CONSTRUCCION VALFER,19.63033161,-99.05203203
2308384,MATERIALES PARA CONSTRUCCI흁 VIENTO NUEVO,19.60893305,-99.00158696
2156984,MATERIALES PARA CONSTRUCCION Y TLAPALERIA HERRERA,19.5524655,-99.07385326
2044686,MATERIALES PARA CONSTRUCCION ZAPATA,19.52084617,-99.03908253
1994512,MATERIALES PARA LA CONSTRUCCION,19.6003568,-98.99227522
6924946,MATERIALES PARA LA CONSTRUCCI흁 CASTELAN,19.52174169,-99.08593257
2308453,MATERIALES PARA LA CONSTRUCCION J.R.,19.60103063,-99.01173463
2301950,MATERIALES PARA LA CONSTRUCCION LA VIRGEN,19.56472011,-99.06351204
8935371,MATERIALES PARA LA CONSTRUCCION Y TLAPALERIA LOS REYES,19.77381958,-98.97630093
2298536,MATERIALES PARA LA CONTRUCCION,19.64109674,-99.05830609
1977767,MATERIALES PEREZ,19.51505428,-99.01834899
2051891,MATERIALES PLOMERIA Y GAS,19.64387287,-98.98826372
2129594,MATERIALES PONCE,19.53509748,-99.03199935
2060932,MATERIALES PONCE,19.5399064,-99.03635909
2266253,MATERIALES RIVERIN,19.68081509,-98.99837352
1981586,MATERIALES ROSA DE ORO,19.51432887,-99.058498
1999089,MATERIALES ROYER,19.60441689,-98.98771607
2003143,MATERIALES SAGITARIO,19.62918932,-99.06692586
2288958,MATERIALES SAN JOSE,19.53579965,-99.0337396
2262179,MATERIALES SANTIAGO,19.75416697,-98.95752206
2004485,MATERIALES SANTIAGO,19.6360261,-99.05992442
2301999,MATERIALES SILVA,19.56313871,-99.06574879
2090478,MATERIALES SORIA,19.54084061,-99.07811614
2299499,MATERIALES SOTO,19.62771245,-99.05710934
2084919,MATERIALES TECUESCONCO,19.63079291,-98.98984493
1994211,MATERIALES TEOCALLIS,19.5391378,-99.01653618
2114318,MATERIALES TEXALPA,19.562874,-99.06040207
2298423,MATERIALES VAZQUEZ,19.64236092,-99.0651305
2027416,MATERIALES VERGARA,19.57256251,-99.02238068
1976026,MATERIALES VIKY,19.65378387,-99.07271541
2015214,MATERIALES VILLA DE GUADALUPE,19.50805591,-99.07096066
2011040,MATERIALES Y CONSTRUCCION FRAGOSO,19.56947799,-99.04972219
2163416,MATERIALES Y CONSTRUCCION JERUSALEN,19.56221232,-99.01548844
2109885,MATERIALES Y PERFILES FERMA,19.61346382,-99.04447577
1976434,MATERIAS CERRAJERIA LOPEZ,19.67173933,-99.02925295
2011435,METAL MECANICA SAMA,19.75759811,-98.97368276
8406282,MICRAHERRAMIENTAS,19.55455296,-99.01943623
2148547,MIKELS MEXICO ECATEPEC II,19.49319089,-99.04525
9346616,MINIFERRETERIA,19.66153173,-98.99421484
6986508,MJULTISERVICIOS LOS PATOS,19.68001436,-99.02752708
2300118,MUROS Y PLAFONES,19.60955925,-99.05639203
2190718,NADIA PARRILLAS Y QUEMADORES,19.52511783,-99.05535475
2164522,PAPELERIA OCHA,19.69744252,-99.00921816
2051695,PAPELERIA Y TLAPALERIA AGUILAR,19.50844074,-99.02571147
2061260,PAPELERIA Y TLAPALERIA MICKIE,19.63768385,-98.97877562
2284372,PESCA TRONIC,19.5100611,-99.04275128
8686813,PIGMACOLOR,19.63211989,-99.07479924
1975805,PINTURAS OPTIMUS,19.5361187,-99.04297922
2000375,PLOGAS,19.5162358,-99.06336936
1978166,PLOMERAMA,19.51575565,-99.06162774
2027689,PLOMERIA,19.6360675,-98.99189088
2046203,PLOMERIA,19.54232748,-99.07478131
2284008,PLOMERIA  FERRO PLOMEX,19.50483776,-99.0644969
2098988,PLOMERIA ALCON,19.64677868,-99.00074353
2189382,PLOMERIA CASA MAYA,19.66869088,-99.00374124
2052017,PLOMERIA CASA ROMERO,19.64294673,-98.9882352
8854030,PLOMERIA DANIEL,19.55404783,-99.07801275
2264388,PLOMERIA DIAZ,19.68622684,-98.98506744
2070583,PLOMERIA EDMAR,19.55276369,-99.08864962
2158548,PLOMERIA EL MUNDO DEL PLOMERO,19.62141315,-99.01243975
2012945,PLOMERIA HERNANDEZ,19.63828215,-98.99673836
1985824,PLOMERIA LA COMPUERTA,19.51115318,-99.02241957
6986516,PLOMERIA LOPEZ,19.63789629,-99.03900336
7082466,PLOMERIA LUGO,19.64286131,-99.06182925
9364588,PLOMERIA MENDOZA,19.66161749,-98.99417752
2266457,PLOMERIA PI헤,19.68181677,-99.01107107
2264857,PLOMERIA RODRIGUEZ,19.68382999,-98.98061354
2283984,PLOMERIA TREJO,19.50415938,-99.06278803
2262930,PLOMERIA VALVULA AJOLOAPAN,19.76369353,-98.97347045
2143251,PLOMERIA VEGA,19.68865983,-98.98041223
6936600,PLOMERIA Y ARTICULOS DE BA헲,19.66871173,-99.00509521
2155886,PLOMER페 Y ELECTRICIDAD,19.52649917,-99.01897454
2134710,PLOMERIA Y FERRETERIA MONTE CARMELO,19.68571619,-98.98410581
7712916,PLOMERIA Y FERRETERIAAVILA,19.4944733,-99.03871676
6936596,PLOMERIA Y GAS ARTICJULOS TIENDA SIN NOMBRE,19.66923013,-99.00400705
2047690,PLOMERIA Y GAS CAMACHO,19.50588133,-99.01907091
7022710,PLOMERIA Y GAS CATALAN,19.64870499,-98.99570373
6921910,PLOMERIA Y TLAPALERIA EL GUERRERO,19.60798001,-99.01463402
2298995,PLOMERIA Y TLAPALERIA LA CENTRAL,19.63137742,-99.06207584
2170607,PLOMERMAX,19.50601304,-99.05552471
9309140,POLLERIA.,19.60739146,-99.06877153
8935365,PRODUCTOS DE PLOMERIA,19.77302593,-98.9794294
2192036,PRODUCTOS PARA EL CARPINTERO BAZAR DEL CARPINTERO SAYER LACK,19.52837958,-99.05404094
6986830,PRODUCTOS YAPI,19.50311295,-99.07319854
9201834,PROGAS,19.58581776,-99.00785244
2300135,PROME PROVEEDORA DE MATERIAL ELECTRICO,19.60997536,-99.05714522
2306240,PROMOTORA FAL,19.55824586,-99.0306062
2056791,PROTUCSA SPEARS S.A DE C.V,19.53187313,-99.07076083
2051321,REFACCIONARIA,19.59790108,-98.9941741
2179059,REFACCIONARIA DE ELECTRODOMESTICOS,19.52077139,-99.03304458
2001658,REFACCIONARIA DE GAS SIN NOMBRE,19.60375883,-98.99090536
2018109,REFACCIONARIA EL BUEN PRECIO,19.61929353,-99.00200434
1992145,REFACCIONARIA GASA,19.77137267,-98.97930965
2288586,REFACCIONARIA Y TORNILLERIA,19.53409987,-99.02626283
2302839,REFACCIONES Y TORNILLOS,19.56172154,-99.0472265
2299935,RUEDAS Y RODAJAS,19.61305033,-99.04888857
2267409,SERVICIO DE PLOMERIA MENDOZA,19.6688337,-99.00510037
2285094,SERVICIO MECANICO ALEX,19.51032686,-99.02332367
2283058,SERVICIOS Y ASESORIA SAMM,19.49553872,-99.04619572
9202802,SIAACSA,19.50228247,-99.04120926
2034064,SILVERLIGHT,19.5139547,-99.03605867
2311008,SUMINISTRO Y COLOCACION DE MARMOL,19.63095701,-98.98862903
2050004,SUPER DE MATERIALES SANTA CLARA,19.53647964,-99.06832579
2299923,SURTIDOR FERRETERO ECATEPEC,19.61328559,-99.04904888
2073266,TALAPALERIA TOKIO,19.64608673,-99.00203343
7468692,TALLER DE PLOMERIA,19.51075176,-99.06213857
7029237,TALPALERIA MEXICO,19.56973737,-99.05405987
6921599,TALPAPELERIA JERARQUI ALEX,19.60105516,-99.02477489
6986513,TATSA TLAPALERIA,19.63897747,-99.03890402
2072610,TIENDA DE ARTICULOS DE PLOMERIA SIN NOMBRE,19.55838132,-99.03133117
2117124,TIENDA DE TORNILLOS,19.55344954,-99.02596015
8686845,TIENDA TRUPER,19.59059629,-99.0276651
7713472,TINACOS Y CALENTADORES,19.49760549,-99.03229605
2296013,TLAELERIA TRES HERMANOS,19.52196534,-99.06923306
2022838,TLALPALERIA SIN NOMBRE,19.55564768,-99.08432872
2034065,TLAPA EL JEFE,19.50342548,-99.06217598
8935607,TLAPAERIA Y FERRETERIA CYBER,19.62766719,-99.03092725
2088789,TLAPAFERRE JIMENEZ,19.50505415,-99.0448837
2081776,TLAPA-FERRE LAURELES,19.50723999,-99.0472111
6936561,TLAPALAERIA NORDIA,19.65717974,-99.00989104
2269704,TLAPALERI FERRETERIA PRECISION,19.62431446,-99.01939123
2307996,TLAPALERIA,19.59984981,-98.99726032
7881664,TLAPALERIA,19.71169734,-98.97336397
7127125,TLAPALERIA,19.63004382,-99.06351097
9037311,TLAPALERIA,19.56660611,-99.02725653
8914734,TLAPALERIA,19.60856286,-99.00001785
2090695,TLAPALERIA,19.55059872,-99.03163126
2154279,TLAPALERIA,19.54715182,-99.02687894
2108313,TLAPALERIA,19.56970321,-99.06299831
2108815,TLAPALERIA,19.5501961,-99.03705446
7469353,TLAPALERIA,19.50978592,-99.05332543
2164806,TLAPALERIA,19.55197862,-99.07224211
2298260,TLAPALERIA,19.64092167,-99.05789646
2130681,TLAPALERIA,19.56628322,-99.02043593
2186100,TLAPALERIA,19.54603608,-99.08412014
2097709,TLAPALERIA,19.50062024,-99.02686257
2116812,TLAPALERIA,19.64684745,-98.98961999
6437571,TLAPALERIA,19.5600616,-99.03534341
8905129,TLAPALERIA,19.57007368,-99.04661303
2124193,TLAPALERIA,19.49656814,-99.02276569
8854425,TLAPALERIA,19.49292369,-99.02084444
8687422,TLAPALERIA,19.60282166,-99.02824732
8924802,TLAPALERIA,19.50225391,-99.01737148
8687313,TLAPALERIA,19.60822973,-99.03387622
2293549,TLAPALERIA,19.53767319,-99.08717136
8769835,TLAPALERIA,19.62693922,-99.04261952
2301067,TLAPALER페,19.61188143,-99.03777339
2021364,TLAPALERIA,19.6219247,-99.07119801
6920349,TLAPALERIA,19.68218471,-99.04116191
2126010,TLAPALERIA,19.49299745,-99.01982687
2136977,TLAPALERIA,19.57350098,-99.05447467
2041817,TLAPALERIA,19.49886488,-99.06005036
6937719,TLAPALERIA,19.62444421,-99.02547328
2037780,TLAPALERIA,19.64915203,-99.0054579
6937662,TLAPALERIA,19.62444421,-99.02547328
8769826,TLAPALERIA,19.63793979,-99.03749391
6937538,TLAPALERIA,19.62748107,-99.02200195
8289980,TLAPALERIA,19.62573316,-99.03131304
2185394,TLAPALERIA,19.54416336,-99.08206994
2035374,TLAPALERIA,19.56401085,-99.08625791
6945323,TLAPALERIA,19.56934151,-99.06166998
7028412,TLAPALERIA,19.601664,-99.04921515
2044094,TLAPALER페,19.59735606,-99.01613891
2111553,TLAPALERIA,19.61136413,-99.01020374
2108406,TLAPALERIA,19.57022784,-99.06414633
2033740,TLAPALERIA,19.53063967,-99.0325618
8333225,TLAPALERIA,19.56822031,-99.09543693
2122164,TLAPALERIA,19.51693469,-99.04685573
1989890,TLAPALERIA,19.586981,-99.03967562
2189482,TLAPALERIA,19.5890243,-99.04621629
6925963,TLAPALERIA,19.55129529,-99.09060826
2286992,TLAPALERIA,19.51350508,-99.04567202
1990557,TLAPALERIA,19.58820177,-99.03744317
2270192,TLAPALERIA,19.629938,-99.04180041
2108078,TLAPALERIA,19.57061974,-99.06207335
2098374,TLAPALERIA,19.54805676,-99.04397258
2004506,TLAPALERIA,19.54972819,-99.06180381
1993972,TLAPALERIA,19.51776633,-99.06560898
2125460,TLAPALERIA,19.54943264,-99.03433456
2287628,TLAPALERIA,19.52284379,-99.05143551
2013418,TLAPALERIA,19.54476248,-99.08449747
2123047,TLAPALERIA,19.49072656,-99.02092998
2007810,TLAPALERIA,19.64266815,-98.99662905
6924971,TLAPALERIA,19.54344288,-99.07949709
6924977,TLAPALERIA,19.54409015,-99.08202624
9095496,TLAPALERIA,19.50141779,-99.04879362
8924271,TLAPALERIA,19.55261094,-99.08747507
2011889,TLAPALERIA  LA REYNA,19.64020167,-98.99544349
2263964,"TLAPALERIA , HERRAMIENTAS Y MATERIALES PARA LA CONSTRUCCION LOS PANCHOS",19.71053135,-98.962622
2120607,TLAPALERIA 22,19.71001072,-98.96673786
2006044,TLAPALERIA 32,19.51434162,-99.02527945
2264047,TLAPALERIA 5 DE MAYO,19.69243798,-98.98476249
2290749,TLAPALERIA 6 HERMANOS,19.54084214,-99.04837378
7470065,TLAPALERIA 7 LEONES,19.52063697,-99.05204398
2283546,TLAPALERIA 7 LEONES,19.5153403,-99.05513553
1969625,TLAPALERIA 7 LEONES,19.52225867,-99.05197744
1969712,TLAPALERIA ABC,19.60906737,-99.01978679
2268192,TLAPALERIA ABI,19.64867101,-99.00963016
2063382,TLAPALERIA ABRAHAM,19.56447118,-99.0590588
1994033,TLAPALERIA ABRIL,19.63804184,-99.07068808
2181130,TLAPALERIA ACUADUCTO,19.5902694,-99.04451833
2296161,TLAPALERIA ADYS,19.51872926,-99.07556243
2119479,TLAPALERIA AGUILAR,19.60755221,-99.06734664
2140447,TLAPALERIA AGUILAR,19.57731876,-99.05448267
2116213,TLAPALERIA AGUILAR,19.64727741,-98.98949019
2074334,TLAPALERIA AGUILAR,19.54987739,-99.0912524
2127398,TLAPALERIA AIN,19.4952785,-99.01760463
2134555,TLAPALERIA AKBAL,19.51569707,-99.05604341
7456951,TLAPALERIA ALEX,19.55888481,-99.03246054
2164291,TLAPALERIA ALEX,19.59849191,-99.02632696
7082114,TLAPALERIA ALEXANDER,19.64520798,-99.06803031
1990870,TLAPALERIA ALFER,19.77350966,-98.98141333
1972609,TLAPALERIA ALIN,19.77916978,-98.98897376
2309808,TLAPALERIA ALONSO,19.61470694,-99.02526235
2034149,TLAPALER페 AMADOR,19.63593713,-98.99225091
2152085,TLAPALERIA AMADOR,19.52296574,-99.01782727
2169771,TLAPALERIA ANA BELEN,19.59911397,-99.04734429
2285005,TLAPALERIA ANAHUAC,19.51294981,-99.02416603
8278328,TLAPALERIA ANDY,19.61509734,-98.98760945
2267457,TLAPALERIA ANGEL JAVIER,19.66617095,-99.00877176
2129948,TLAPALERIA ANGELICA,19.53353336,-99.03268808
2171059,TLAPALERIA ANGELITO,19.52611152,-99.02527257
9291482,TLAPALERIA ANITA,19.59678507,-99.00416145
2174970,TLAPALERIA ANNY,19.59810143,-99.02398893
2181884,TLAPALERIA APER,19.67946896,-99.01400986
1967066,TLAPALERIA ARA,19.5522202,-99.01742092
2147547,TLAPALERIA ARAGONES,19.49418868,-99.04251571
1998413,TLAPALERIA ARBOLEDAS,19.49495166,-99.02886371
2049834,TLAPALERIA ARBOLITOS,19.53905508,-99.08555142
2305343,TLAPALERIA ARCA,19.55534567,-99.03366213
2288314,TLAPALERIA ARELY,19.52649917,-99.01897454
2082159,TLAPALERIA ARIES,19.52394428,-99.04045906
2015553,TLAPALERIA ARIES,19.51158369,-99.03319469
2140359,TLAPALERIA ARIES,19.53885895,-99.03092181
2267399,TLAPALERIA ARIES,19.66890284,-99.00516844
1994149,TLAPALERIA ARRECIFE,19.60049406,-98.9921704
2004657,TLAPALERIA ARROYO,19.51480419,-99.02508755
9086382,TLAPALERIA AVENIDA CENTRAL,19.50315091,-99.04183173
2144290,TLAPALERIA AZTECA,19.68182332,-98.98345815
2285429,TLAPALERIA AZTECATL,19.52394735,-99.01667559
8457919,TLAPALERIA B Y G,19.49183696,-99.01688568
2306100,TLAPALERIA BACHILLERES,19.55546159,-99.0271791
2150604,TLAPALERIA BACI,19.52669187,-99.01808418
2270210,TLAPALERIA BADILLO,19.62903504,-99.0416854
2007273,TLAPALERIA BALEZA,19.65943906,-98.99937831
2297325,TLAPALERIA BARA TODO.,19.61068276,-99.06464334
8923069,TLAPALERIA BARBOSA,19.67923411,-99.03044002
2299816,TLAPALERIA BARRERA,19.61915729,-99.05682921
2288730,TLAPALERIA BATATAS,19.5360281,-99.02329879
2268001,TLAPALERIA BAUTISTA,19.64879814,-99.02833922
2269417,TLAPALERIA BAUTISTA,19.62686436,-99.01938185
2144569,TLAPALERIA BAZA,19.55817702,-99.07896245
2305938,TLAPALERIA BEATRIZ,19.5672227,-99.01641505
8905958,TLAPALERIA BE-FRANS,19.64863236,-98.99501765
2294680,TLAPALERIA BENAVIDES,19.55475946,-99.06274151
2050106,TLAPALERIA BENHU,19.49606154,-99.05290616
2040322,TLAPALERIA BENY,19.54129597,-99.05997143
2304357,TLAPALERIA BERAKA,19.60657322,-99.01754726
2154450,TLAPALERIA BLANQUITA,19.57277446,-99.02520104
2307226,TLAPALERIA BOSQUES,19.59418738,-99.00485479
2122978,TLAPALERIA BOSQUES,19.5948629,-99.00183591
8905623,TLAPALERIA BT,19.61983839,-99.01279732
2283892,TLAPALERIA CADENA,19.50152354,-99.05612714
7122921,TLAPALERIA CAMARGO,19.59704724,-99.0166359
2116798,TLAPALERIA CANO,19.69349601,-98.97850489
2112661,TLAPALERIA CAPRICORNIO,19.64442539,-98.99781379
2266311,TLAPALERIA CARMELITA,19.68955801,-98.98989976
9345527,TLAPALERIA CARMEN,19.62422726,-99.03236934
8250218,TLAPALERIA CASA ABILA,19.64148769,-99.0585973
2184477,TLAPALERIA CASA ACOSTA,19.57796746,-99.04458323
8687074,TLAPALERIA CASA ALVADI,19.59109667,-99.01208228
1988091,TLAPALERIA CASA BARRERA,19.60783408,-98.9909867
1984074,TLAPALERIA CASA BARRERA,19.60865251,-98.99129288
2019954,TLAPALER페 CASA CUENCA,19.52715104,-99.04860165
2283398,TLAPALERIA CASA DEL TORNILLO ROMEL,19.49140446,-99.02939995
8882405,TLAPALERIA CASA DON JOSE,19.56469188,-99.06002676
9062240,TLAPALERIA CASA ELIZALDE,19.52801503,-99.06386045
2268943,TLAPALERIA CASA LEON,19.63419914,-99.02594354
6921820,TLAPALERIA CASA MARCO,19.59818208,-99.02233464
2299515,TLAPALERIA CASA MARI,19.62342239,-99.05427978
2102226,TLAPALERIA CASA MARTINEZ,19.49978414,-99.03052161
2037300,TLAPALERIA CASA MENDEZ,19.60189376,-99.00688881
2039415,TLAPALERIA CASA OKADIZ,19.49980074,-99.06200246
2264563,TLAPALERIA CASA SIERRA,19.68649817,-98.97034902
2018546,TLAPALERIA CASA VIC,19.61486884,-99.00949129
8457411,TLAPALERIA CASFER,19.63705433,-99.03471152
2086091,TLAPALERIA CASTILLO,19.68546973,-98.9699562
6924566,TLAPALERIA CASTILLO,19.55090753,-99.08260089
2114885,TLAPALERIA CASTRO HERMANOS,19.55662706,-99.06468204
2174828,TLAPALERIA CAYZA,19.54001086,-99.04300223
2074841,TLAPALERIA CELESTINO,19.52897605,-99.04120332
2114286,TLAPALERIA CENTRAL,19.53435821,-99.03011043
1998133,TLAPALERIA CHABELIN,19.66610616,-99.00878421
6936942,TLAPALERIA CHABELITA,19.67798432,-99.01767088
2176386,TLAPALERIA CHAHUA,19.52063415,-99.03072162
2048907,TLAPALERIA CHAPULTEPEC,19.6218316,-99.05753948
2039375,TLAPALERIA CHARLIE,19.65115598,-98.9950329
8868075,TLAPALERIA CHAVA,19.50950682,-99.08735195
9140664,TLAPALERIA CHIQUITA,19.53550932,-99.03300198
7611078,TLAPALERIA CHRISTIAN,19.52517735,-99.01916351
7518251,TLAPALERIA CIRCUNVALACION,19.55220864,-99.03766714
6945748,TLAPALERIA CISNEROS,19.56313227,-99.05031879
8456907,TLAPALERIA COCA,19.55512977,-99.06374631
2312446,TLAPALERIA COM-FAC,19.64440581,-98.99769624
2027508,TLAPALERIA CON AUDIO Y VIDEO,19.5264667,-99.0504982
2287997,TLAPALER페 CONDOR,19.52676597,-99.03003104
2289984,TLAPALERIA CONDOR,19.54010402,-99.06437276
2118040,TLAPALERIA CONTRERAS,19.55177984,-99.02406164
6986382,TLAPALERIA COOPER,19.6628973,-99.01910756
2094827,TLAPALERIA CORONADO,19.55351071,-99.03897049
7881713,TLAPALERIA CORTES,19.71159326,-98.97343267
2084675,TLAPALERIA CORTINEZ,19.54666321,-99.07640401
2173278,TLAPALERIA CRUZ,19.56742973,-99.09331089
2002232,TLAPALERIA CRUZ,19.66219519,-98.99772911
2160073,TLAPALERIA CRUZ,19.62109609,-99.01257786
2007456,TLAPALERIA CRUZ,19.53825574,-99.02106647
2098667,TLAPALERIA CRUZ,19.57549571,-99.0633213
2090380,TLAPALERIA D BRENDA,19.49914975,-99.02234122
2070498,TLAPALERIA DAIRA,19.50659727,-99.0279629
7881944,TLAPALERIA DANAE,19.69353849,-98.998781
2184738,TLAPALERIA DANY,19.56657456,-99.03717684
2095443,TLAPALERIA DANY,19.51712758,-99.04101439
2017122,TLAPALERIA DAVID,19.61633675,-99.01145275
2136850,TLAPALERIA DE LA ROSA,19.51471735,-99.05337359
2071429,TLAPALERIA DE TODO,19.55092854,-99.08554752
2311802,TLAPALERIA DEL CASTILLO,19.6441872,-98.98900739
2139407,TLAPALERIA DEL CENTRO,19.6851872,-98.98865
2155631,TLAPALERIA DELFIN,19.49720374,-99.03732119
2063033,TLAPALERIA DELTA,19.50674692,-99.02202483
8549112,TLAPALERIA DEMEN,19.69587809,-98.94145283
2289598,TLAPALERIA DENNISE,19.53155214,-99.04105329
2076411,TLAPALERIA DIANA,19.50560235,-99.0447556
6945420,TLAPALERIA DIOS ES AMOR,19.56854018,-99.0718155
7028381,TLAPALERIA DIOS ES AMOR,19.57227841,-99.07146679
2267590,TLAPALERIA DON BENY,19.67243001,-99.00006759
7882618,TLAPALERIA DON CARLOS,19.68840543,-98.97527516
1978630,TLAPALERIA DON LUIS,19.51674988,-99.0171606
6921498,TLAPALERIA DON NACHO,19.61960311,-99.01382127
2082556,TLAPALERIA DON PABLO,19.50241853,-99.0327023
2017651,TLAPALERIA DON PANCHO,19.76900966,-98.95061131
1986317,TLAPALERIA DOXA,19.51191365,-99.06937839
6937409,TLAPALERIA DRICOL,19.63722867,-99.03521572
1976728,TLAPALERIA DURAN,19.57757833,-99.0472011
2000517,TLAPALER페 EBENEZER,19.53459272,-99.0205054
2014321,TLAPALERIA EDGAR,19.5066612,-99.07483069
2307170,TLAPALERIA EDGAR,19.59318748,-99.00143764
6925721,TLAPALERIA EDITH,19.55578403,-99.08010443
6926177,TLAPALERIA EDWIN,19.56717457,-99.08562682
2032177,TLAPALERIA EL AGUILA,19.54013882,-99.0644734
2040940,TLAPALERIA EL ARBOL,19.61875948,-99.07484937
2040395,TLAPALERIA EL CAJON,19.65328757,-98.99574339
2284697,TLAPALERIA EL CANDADITO,19.50477414,-99.01628307
1971882,TLAPALERIA EL CAPRICHO,19.62960171,-99.00595963
6926158,TLAPALERIA EL CASTOR,19.55402456,-99.08272955
6925902,TLAPALERIA EL CHATO,19.55606573,-99.07541226
9349851,TLAPALERIA EL CISNE,19.62052181,-99.02283705
2131004,TLAPALERIA EL CISNE IV,19.52434128,-99.06618124
2262754,TLAPALERIA EL CLAVITO,19.77307157,-98.97940737
2306406,TLAPALERIA EL CLAVITO,19.56103195,-99.02583556
2021141,TLAPALERIA EL CLAVITO,19.59308833,-99.00682481
2299420,TLAPALERIA EL CLAVITO,19.62550661,-99.05345154
2183503,TLAPALERIA EL CLAVITO,19.56601542,-99.04069875
2046376,TLAPALERIA EL CLAVITO,19.49990912,-99.05310691
2085713,TLAPALERIA EL CLAVITO,19.52623671,-99.04649126
2106912,TLAPALERIA EL COMETA,19.68380571,-98.97275073
2130204,TLAPALERIA EL CONGO ROJO,19.60047705,-99.05302361
9095038,TLAPALERIA EL CONSENTIDO,19.50976921,-99.01599651
8896934,TLAPALERIA EL DIAMANTE,19.52845665,-99.03958159
2161232,TLAPALERIA EL FENIX,19.54890222,-99.02440204
2081805,TLAPALERIA EL GALLO,19.5538141,-99.02902786
2267489,TLAPALERIA EL GRILLO,19.66912471,-99.00226566
1998827,TLAPALERIA EL GUERO,19.5166198,-99.06578954
1978401,TLAPALER페 EL HIDALGUENZE,19.64776104,-99.06871298
6921571,TLAPALERIA EL IGUANA,19.59983834,-99.02790517
2129949,TLAPALERIA EL IMAN,19.5458813,-99.03289932
1982388,TLAPALERIA EL IMAN,19.65463141,-99.06715845
8883591,TLAPALERIA EL IMAN,19.51328262,-99.05543563
8550526,TLAPALERIA EL IMAN,19.61264751,-99.07001475
8394717,TLAPALERIA EL KIOSCO,19.51583161,-99.06623773
2301184,TLAPALERIA EL KIOSCO,19.5839941,-99.0396685
1983900,TLAPALERIA EL LEON,19.77799552,-98.98116866
2157550,TLAPALERIA EL MARHAZANA,19.52352226,-99.02189241
7082235,TLAPALERIA EL MEXIQUENSE,19.64693374,-99.0652777
2301349,TLAPALERIA EL MIXTECO,19.57801561,-99.06296313
1966675,TLAPALERIA EL OSO,19.52211095,-99.05544116
2304159,TLAPALERIA EL PASILLITO,19.60886683,-99.03236769
8769782,TLAPALERIA EL PASO,19.67271512,-99.02179562
2060687,TLAPALERIA EL PATO DONALS,19.53302954,-99.07535277
2020069,TLAPALERIA EL PINO,19.55449363,-99.08320919
2264159,TLAPALERIA EL PIOJITO,19.69139295,-98.98023904
2070193,TLAPALERIA EL PORVENIR,19.5189839,-99.08844427
2072323,TLAPALERIA EL POZITO,19.55021074,-99.08691471
8278926,TLAPALERIA EL PROGRESO,19.63202638,-98.99887091
2084555,TLAPALERIA EL PROGRESO,19.54647247,-99.07685668
1969626,TLAPALERIA EL PROGRESO,19.55777718,-99.01702594
2298549,TLAPALERIA EL PROGRESO,19.64166988,-99.0587513
2141009,TLAPALERIA EL PROGRESO,19.49763212,-99.04116999
2068163,TLAPALERIA EL PUENTE,19.68903874,-98.97648203
8904964,TLAPALERIA EL PUENTE,19.64488811,-99.01488312
2051616,TLAPALERIA EL RAYO,19.50018039,-99.05622034
2008072,TLAPALERIA EL REMACHE,19.53916781,-99.01713386
2282016,TLAPALERIA EL REMACHE,19.49582611,-99.02697885
2302170,TLAPALERIA EL RETO헲,19.56967269,-99.05609207
2295842,TLAPALERIA EL RETORNO,19.50991726,-99.07719043
2005454,TLAPALERIA EL ROBLE,19.7635162,-98.96333819
2097655,TLAPALERIA EL ROSAL,19.57456642,-99.06419617
2007619,TLAPALERIA EL SABINO,19.59869399,-99.00876133
2044532,TLAPALERIA EL SOL,19.54099462,-99.03342057
2160257,TLAPALERIA EL TORNILLO,19.52445547,-99.02166715
8904936,TLAPALERIA EL TREBOL,19.56340734,-99.03113901
1981921,TLAPALERIA EL ZACATECANO,19.52988574,-99.0431128
9085616,TLAPALERIA ELECTRICA Y PLOMERIA QUINTERO,19.48957768,-99.02188233
1965654,TLAPALERIA ELENA,19.77685682,-98.99042814
2139097,TLAPALERIA EMANUEL,19.57625395,-99.05637476
2074957,TLAPALERIA EMILIANO,19.50639803,-99.02896516
2048781,TLAPALERIA EMMANUEL,19.53402557,-99.08507387
2117493,TLAPALERIA ENCINO,19.60252795,-99.05701008
2263053,TLAPALERIA ENCIZO,19.71900283,-98.96814281
2285614,TLAPALERIA ENRIQUEZ,19.52383884,-99.02051057
8153878,TLAPALERIA ERIK,19.58679507,-99.04896154
2132857,TLAPALERIA ERIKA,19.53245681,-99.03241033
2028560,TLAPALERIA ESCOBAR,19.50644666,-99.06873932
2312418,TLAPALERIA ESCORPIO,19.64830543,-98.99297185
2019032,TLAPALERIA ESCORPION,19.74678526,-98.95141947
2151904,TLAPALERIA ESPERANZA,19.61259372,-98.98886467
2007871,TLAPALERIA ESPINAL,19.4910986,-99.03158605
7121698,TLAPALERIA ESPINAL JUNIOR,19.56881612,-99.02561307
2025213,TLAPALERIA ESPINOZA,19.50713082,-99.03593512
2037814,TLAPALERIA ESQUIVEL,19.65230827,-99.01107896
2147550,TLAPALERIA ESTRADA,19.61824127,-98.98771003
2294622,TLAPALERIA ESTRELLA DEL SURESTE,19.55609551,-99.07514378
7468789,TLAPALERIA EVA,19.50924302,-99.05995008
2035653,TLAPALERIA EVEYSA,19.65423944,-99.00730929
2181466,TLAPALERIA EXPERTOS EN PLOMERIA ECATEPEC,19.59254808,-99.00178343
2086067,TLAPALERIA FABIS,19.50494663,-99.04883144
8390619,TLAPALERIA FAMILIAR,19.63546774,-98.98856295
1970293,TLAPALERIA FANY,19.521192,-99.05378863
2165200,TLAPALERIA FATIMA,19.69542085,-99.00898695
2070522,TLAPALERIA FER,19.50236994,-99.04639175
7469090,TLAPALERIA FER 2,19.50236994,-99.04639175
2295662,TLAPALERIA FERRE ANGIE,19.54132718,-99.07026682
2121245,TLAPALERIA FERRE LEO,19.51901676,-99.04797619
2040408,TLAPALERIA FERRE MAS,19.52918,-99.02943523
7007788,TLAPALERIA FERRELIBRA,19.55213267,-99.08628034
2151672,TLAPALERIA FERREPOLO,19.49604836,-99.04212561
2056145,TLAPALERIA FERRESOL,19.50554456,-99.0182229
2154709,TLAPALERIA FERRETLAPA,19.49721424,-99.03762989
2058328,TLAPALERIA FERROMAX,19.53264944,-99.08288988
2085107,TLAPALERIA FLORES,19.50103138,-99.01966952
1995850,TLAPALER페 FLORES,19.53623786,-99.01633645
7022875,TLAPALERIA FLORES,19.6471586,-99.01091506
2035169,TLAPALERIA FLORIDA,19.50961845,-99.03497806
2150492,TLAPALERIA FRACSA,19.5541033,-99.07792853
2303592,TLAPALERIA FUENTE GRANDE,19.5933112,-99.03766918
2090697,TLAPALERIA FYF,19.63503696,-98.98990061
8906058,TLAPALERIA G,19.64905557,-99.00909086
1977204,TLAPALERIA GABI,19.65010099,-99.07017435
2009338,TLAPALERIA GABRIEL,19.56957002,-99.05089161
1983846,TLAPALERIA GABY,19.61988574,-99.00221408
2003622,TLAPALERIA GABY,19.60081195,-99.00581756
2057095,TLAPALERIA GARCIA,19.53439501,-99.07812683
6937166,TLAPALERIA GARCIA,19.65793882,-98.9956542
8867514,TLAPALERIA GARCIA,19.5492527,-99.09005343
2188043,TLAPALERIA GARDUNO,19.5742882,-99.05640815
8926219,TLAPALERIA GEMINIS,19.59235128,-98.99587117
2296062,TLAPALERIA GEMINIS,19.51587174,-99.07207773
2156698,TLAPALERIA GEMINIS,19.67827737,-98.99903368
2310051,TLAPALERIA GEMINIS,19.60757253,-99.01170894
2307657,TLAPALERIA GEMINIS,19.60352188,-99.00060954
1993963,TLAPALERIA GOBA,19.77936276,-98.98131917
1992308,TLAPALERIA GOMEZ,19.64046974,-99.06600314
2108961,TLAPALERIA GOMEZ HERMANOS,19.51954861,-99.04930926
2098663,TLAPALERIA GOMEZ HERMANOS,19.52034453,-99.04707023
2304107,TLAPALERIA GONZALEZ,19.61034289,-99.02789396
6945664,TLAPALERIA GONZALEZ,19.55272772,-99.06801795
2297267,TLAPALERIA GRANADOS,19.61313046,-99.06322732
2023211,TLAPALERIA GRECIA,19.50913843,-99.0345265
6925536,TLAPALERIA GRUPO UNION,19.55397509,-99.07839914
8289858,TLAPALERIA GUESAM,19.63166351,-99.01791452
2290949,TLAPALERIA GUZMAN,19.54051093,-99.04598234
2041869,TLAPALERIA GUZMAN,19.63250496,-98.99133453
2298743,TLAPALERIA HALC흁,19.63865546,-99.06284022
2098347,TLAPALERIA HARMANOS,19.57702886,-99.06675936
1998116,TLAPALER페 HEBI,19.59736045,-98.99203127
7126942,TLAPALERIA HECSA,19.63412217,-99.06773067
2058042,TLAPALERIA HERMANOS BUENDIA,19.71179494,-98.97289744
1980474,TLAPALERIA HERMANOS QUIRIZ,19.50818281,-99.01793314
2009617,TLAPALERIA HERNANDEZ,19.64173254,-98.99819867
2134869,TLAPALERIA HERNANDEZ,19.60466522,-99.02182302
7518508,TLAPALERIA HERNANDEZ,19.55488169,-99.02716049
7455950,TLAPALERIA HEROES DE LA INDEPENDENCIA,19.53889224,-99.04870086
1980253,TLAPALERIA HERRAMIENTAS FORMEC,19.60240957,-98.99783026
2305696,TLAPALERIA HERRERA,19.56567032,-99.01728511
7122060,TLAPALERIA HERRERA,19.55977921,-99.02114409
2282227,TLAPALERIA HERRERA,19.49513312,-99.0157323
2018987,TLAPALER페 HIDALGO,19.52908481,-99.04742376
2299653,TLAPALERIA HM HERRAMIENTAS,19.6216597,-99.0682439
1984374,TLAPALERIA HOGWARTS,19.67621941,-99.02617149
7713515,TLAPALERIA HORUS,19.50812664,-99.01659102
2031145,TLAPALERIA HUERTA,19.5391565,-99.06897599
2297609,TLAPALERIA HUESCA,19.60166357,-99.0606434
2109219,TLAPALERIA ILUSION,19.68333732,-98.97527957
2143190,TLAPALERIA INDEPENDENCIA,19.68972552,-98.98072927
2177703,TLAPALERIA IRAPUATO,19.59259898,-99.00278661
1982217,TLAPALERIA IRIS,19.67230568,-99.03118813
2013785,TLAPALERIA ISIDRO FABELA,19.72183073,-98.96600376
1981409,TLAPALERIA IVONNE,19.60298486,-98.99635079
2027975,TLAPALERIA IXTLAN,19.61500997,-99.07754369
2148829,TLAPALERIA IZCALLI,19.60688877,-99.02276661
2029579,TLAPALERIA JANETE,19.63422014,-98.99723891
8278962,TLAPALERIA JAQUELINE,19.58526813,-99.04910226
2174454,TLAPALERIA JARDINES,19.53925882,-99.04206546
6936475,TLAPALERIA JARDINES,19.66946661,-99.00589828
2268112,TLAPALERIA JARDINES,19.63760935,-99.04088098
2299351,TLAPALERIA JAURI,19.62308342,-99.05118905
2006226,TLAPALERIA JERCERIA,19.53825574,-99.02106647
2266356,TLAPALERIA JIMENEZ,19.69259616,-98.99930203
7882055,TLAPALERIA JIRETH,19.69174262,-98.99924286
9176992,TLAPALERIA JIRETH,19.69159002,-98.99494409
2305177,TLAPALER페 JOEL,19.55571869,-99.0281944
2071773,TLAPALERIA JONNY,19.68840543,-98.97527516
2134095,TLAPALERIA JR,19.61206645,-98.99367367
8390560,TLAPALERIA JR,19.61002225,-98.99406577
2118864,TLAPALERIA JUDITH,19.53147627,-99.05454332
9367526,TLAPALERIA JULIETA,19.62449144,-99.03086181
2286802,TLAPALERIA JUVENTUS,19.50913895,-99.04552018
7880941,TLAPALERIA KARINA,19.72190775,-98.9792053
2082850,TLAPALERIA KARINA,19.5901289,-99.02750658
2131231,TLAPALERIA KAROL S,19.54523932,-99.0312788
2103057,TLAPALERIA KATY,19.55719861,-99.03622451
1980452,TLAPALERIA KELLER,19.65067406,-99.06417729
7022164,TLAPALERIA KENYA,19.64367227,-98.99139606
7470153,TLAPALERIA KEVIN,19.53036572,-99.04477081
6937500,TLAPALERIA KIKIN,19.61752906,-99.02221916
8710757,TLAPALERIA KIMI,19.62191274,-99.00591665
2056608,TLAPALERIA KIRIZ,19.5052357,-99.01798468
9040751,TLAPALERIA LA 44,19.59444897,-98.99219579
2004770,TLAPALERIA LA ACUESTA,19.55002024,-99.06557019
7022474,TLAPALERIA LA ANCHA,19.63994,-98.99091216
2095359,TLAPALERIA LA AZTECA,19.53598712,-99.02442195
6921495,TLAPALERIA LA BARATA,19.62006348,-99.01535879
2089074,TLAPALERIA LA BARATA DE SOLIS,19.61242324,-99.01427368
2007257,TLAPALERIA LA BARATA DEL DOS MIL,19.52006133,-99.0621215
2289537,TLAPALER페 LA CAMPI헤,19.53416536,-99.03817367
2110398,TLAPALERIA LA CENTRAL,19.60672761,-99.01221449
2063157,TLAPALERIA LA CENTRAL,19.52969113,-99.03955909
7518307,TLAPALERIA LA CENTRAL,19.55300454,-99.03406361
2290697,TLAPALERIA LA CHICHARRA,19.53404687,-99.05120793
2018605,TLAPALERIA LA CHIQUITA,19.55646412,-99.08236899
7028719,TLAPALERIA LA CHIQUITA,19.59660345,-99.05180693
2102927,TLAPALERIA LA CHIQUITA,19.5345665,-99.02277914
2269241,TLAPALER페 LA CHISPITA,19.63794867,-99.03459613
2305676,TLAPALERIA LA CHIVA,19.54881763,-99.04136122
2122244,TLAPALERIA LA COMERCIAL,19.55032306,-99.03139505
2083587,TLAPALERIA LA CORUNDE헤,19.63444939,-98.97853281
2182882,TLAPALER페 LA ECON흀ICA,19.53248697,-99.04833943
7127905,TLAPALERIA LA ECONOMICA,19.61424608,-99.06906848
1991758,TLAPALERIA LA ESCALERA,19.54533546,-99.019996
2122726,TLAPALERIA LA ESCONDIDA,19.64012658,-99.00395675
2312950,TLAPALERIA LA ESCONDIDA,19.64483168,-99.00956516
2047719,TLAPALERIA LA ESMERALDA,19.50594101,-99.01922119
2264671,TLAPALERIA LA ESPERANZA,19.68354244,-98.96044811
2041799,TLAPALERIA LA ESPERANZA,19.56859125,-99.08710999
2185204,TLAPALERIA LA ESPERANZA,19.67480341,-99.00705132
2154363,TLAPALERIA LA ESTRELLA,19.54696416,-99.02696272
2028996,TLAPALERIA LA FAVORITA,19.65598019,-99.00734071
2281969,TLAPALERIA LA FE,19.49939142,-99.02368032
2098344,TLAPALERIA LA FLOR DE 5 DE MAYO,19.54840605,-99.04349261
1989689,TLAPALERIA LA FLORIDA,19.54211836,-99.01514574
2175047,TLAPALERIA LA FUENTE,19.52039901,-99.02402246
7468637,TLAPALERIA LA GOLONDRINA,19.5102865,-99.06515149
2071985,TLAPALERIA LA GOTERA,19.56004707,-99.03103671
2128916,TLAPALERIA LA GRAN BARATA,19.53458388,-99.03395722
2009076,TLAPALERIA LA GUADALUPANA,19.6612961,-98.99237894
7022579,TLAPALERIA LA GUERA,19.64452081,-99.01467651
7611207,TLAPALERIA LA GUERA,19.52552911,-99.02282289
2011389,TLAPALERIA LA HERRADURA,19.65581851,-98.995041
8549022,TLAPALERIA LA HIDALGUENSE,19.60227296,-99.00896626
7027618,TLAPALERIA LA HORMIGA,19.62156531,-99.05414065
1984314,TLAPALERIA LA IDEAL,19.67621941,-99.02617149
2015256,TLAPALERIA LA JACARANDA,19.62083739,-99.07046366
2170398,TLAPALERIA LA JAPONESA,19.50459779,-99.06389899
2012865,TLAPALERIA LA JAPONESA,19.63765486,-98.995538
8840822,TLAPALERIA LA JOYA,19.62428475,-98.98552572
2027480,TLAPALERIA LA LOMA,19.61506808,-99.07907847
1984471,TLAPALER페 LA LUPITA,19.53240577,-99.04355543
2088509,TLAPALERIA LA LUZ,19.51112248,-99.08445032
2310024,TLAPALERIA LA METROPOLITANA,19.61190088,-99.00446161
9089063,TLAPALERIA LA MEXIQUENSE,19.63319155,-99.03056246
1988435,TLAPALERIA LA MINIUTURA,19.58828041,-99.03748901
2008069,TLAPALERIA LA MODERNA,19.51396401,-99.02538794
2001779,TLAPALER페 LA MUNDIAL,19.53413528,-99.0193535
1969364,TLAPALERIA LA NACIONAL,19.53990538,-99.03865368
2067836,TLAPALERIA LA NACIONAL,19.52755786,-99.03730269
2070160,TLAPALERIA LA NENA,19.51903252,-99.08860057
2307595,TLAPALERIA LA NO HAY,19.59840439,-99.00828602
2028302,TLAPALERIA LA NORTE헬TA,19.55100636,-99.07851636
7127890,TLAPALERIA LA NUEVA,19.62127339,-99.06552956
2138275,TLAPALERIA LA NUEVA,19.49835256,-99.03873493
8905608,TLAPALERIA LA NUEVA,19.56151775,-99.02360305
2164789,TLAPALERIA LA NUEVA,19.55305011,-99.07237226
2057969,TLAPALERIA LA NUEVA TLAPA,19.50404247,-99.01798667
2141318,TLAPALERIA LA PALITA,19.64839116,-98.99375048
2169671,TLAPALER페 LA PALMA,19.52536595,-99.02868867
2287167,TLAPALERIA LA PALMA,19.51755929,-99.05377952
2016193,TLAPALERIA LA PALOMA,19.76277652,-98.95797494
2096251,TLAPALERIA LA PALOMA,19.51036682,-99.08924257
2186165,TLAPALERIA LA PALOMA,19.6698956,-99.00619348
2129853,TLAPALERIA LA PEQUE헤,19.52430131,-99.0667105
2128049,TLAPALERIA LA PERLA,19.61680213,-98.99239344
2306933,TLAPALERIA LA PRINCIPAL,19.58539572,-99.01416956
2264640,TLAPALERIA LA PROVIDENCIA,19.68189681,-98.96578967
2043558,TLAPALERIA LA SOLITA,19.49835952,-99.05751339
2012643,TLAPALERIA LA SOMBRA,19.65800428,-98.99226619
7029272,TLAPALERIA LA SURTIDITA,19.59496655,-99.04797273
2135251,TLAPALERIA LA TACHUELA,19.60363567,-99.02091992
2086360,TLAPALERIA LA TACHUELA,19.55577372,-99.03648007
6920387,TLAPALERIA LA TAPACHUELA,19.620046,-99.02615387
2285861,TLAPALERIA LA TERMINAL,19.51602761,-99.01886105
2267105,TLAPALERIA LA TLAPA,19.68000353,-99.0223003
2302044,TLAPALERIA LA TORRE,19.57418769,-99.06152782
1968162,TLAPALERIA LA TRABE,19.62769972,-99.00016889
2269583,TLAPALERIA LA UNICA,19.62838997,-99.01547612
2011905,TLAPALERIA LA UNICA,19.65900214,-98.99168237
2012866,TLAPALERIA LA UNION,19.62678614,-99.06253094
1977997,TLAPALERIA LA UNION,19.60487059,-99.0293385
2270366,TLAPALERIA LA UNION,19.63192505,-99.0358801
2289462,TLAPALER페 LA UNIVERSAL,19.52728015,-99.04893286
7028980,TLAPALERIA LA VENTANTA,19.59559398,-99.05016934
2307538,TLAPALERIA LAGOS,19.60040883,-99.01447117
1994874,TLAPALERIA LAMPI,19.63376434,-99.06680333
2110787,TLAPALERIA LAS FLORES,19.63306381,-99.02677642
2303282,TLAPALERIA LAS FUENTES,19.56620279,-99.04019172
7022674,TLAPALERIA LAS HERMANAS,19.64451429,-98.98651511
2298713,TLAPALERIA LAS TORRES,19.63589652,-99.05888609
2014578,TLAPALERIA LAS VEGAS,19.50685898,-99.07467183
1971672,TLAPALERIA LAS VIA,19.62689967,-99.00551853
2262503,TLAPALERIA LAURITA,19.77878354,-99.00438038
7469677,TLAPALERIA LEL CANDADITO,19.52239514,-99.05706974
7081572,TLAPALERIA LEO,19.64454173,-99.06036154
2111313,TLAPALERIA LEON,19.60948769,-99.04212235
2024056,TLAPALERIA LEON,19.57503843,-99.0258702
7122307,TLAPALERIA LEON,19.56906454,-99.02302262
2282820,TLAPALERIA LIBRA,19.48965738,-99.03432344
1970597,TLAPALERIA LIBRA,19.51995976,-99.01961965
2284923,TLAPALERIA LIBRA,19.50268488,-99.03089597
7022193,TLAPALERIA LIBRA,19.64401024,-98.98590543
2008496,TLAPALERIA LILI,19.63248364,-99.0562205
2084025,TLAPALERIA LILI,19.63255938,-98.97904782
2116072,TLAPALERIA LINDA,19.64773015,-98.98999597
2311491,TLAPALERIA LIZ,19.6411048,-98.98233287
8854722,TLAPALERIA LOBOS,19.51816139,-99.01798594
2012794,TLAPALERIA LOMAS DE TECAMAC,19.65861322,-98.99398167
2110374,TLAPALERIA LOPEZ,19.61183127,-99.04469786
2295955,TLAPALERIA LOPEZ,19.52332303,-99.06863349
1995284,TLAPALERIA LORE,19.51737405,-99.01986852
2159597,TLAPALERIA LOS ALEXS,19.62139292,-99.01242432
6922203,TLAPALERIA LOS ARBOLITOS,19.60780703,-99.01147995
2079203,TLAPALERIA LOS ARBOLITOS,19.5918751,-99.02735884
2074902,TLAPALERIA LOS CHOPOS,19.61818661,-99.05244903
2047720,TLAPALERIA LOS MANOLOS,19.49959068,-99.05283586
2269418,TLAPALERIA LOS PINOS,19.62675252,-99.01958318
2186575,TLAPALERIA LOS ROSALES,19.51509158,-99.02919149
1984150,TLAPALERIA LOS SANCHEZ,19.77651384,-98.98140013
2191344,TLAPALERIA LOS SOCIOS,19.57348212,-99.05462566
8278108,TLAPALERIA LOS TRES HERMANOS,19.63459905,-98.99236772
8906481,TLAPALERIA LOTO,19.60451071,-99.00645652
8897110,TLAPALERIA LOY,19.53006178,-99.03087803
7765221,TLAPALERIA LUCERO,19.50541617,-99.03130451
1990711,TLAPALERIA LUCY,19.53997785,-99.01866279
2043900,TLAPALERIA LUGO,19.6475993,-98.98587918
2027812,TLAPALERIA LUIGI,19.53916549,-99.06984842
7457192,TLAPALERIA LUIGI,19.54730179,-99.02698251
2282051,TLAPALERIA LUIS,19.49774621,-99.02515868
2013448,TLAPALERIA LULIS,19.6206738,-99.07962528
8923150,TLAPALERIA LUNA,19.70969421,-98.96957535
1991985,TLAPALERIA LUPITA,19.52966643,-99.04297847
2145015,TLAPALERIA LUPITA,19.55795679,-99.07758432
6920200,TLAPALERIA LUPITA,19.6245397,-99.01420024
2081053,TLAPALERIA MAGNETO,19.68702928,-98.96969805
2262137,TLAPALERIA MAGO,19.75238236,-98.95393871
1973568,TLAPALERIA MAMIS,19.54935409,-99.01945724
2032136,TLAPALERIA MANA,19.63205794,-99.01911149
2114557,TLAPALERIA MANOLA,19.60225015,-98.99710501
1994446,TLAPALERIA MAPI,19.53899782,-99.01618184
7906929,TLAPALERIA MAR,19.765095,-98.96713606
2077825,TLAPALERIA MAR,19.55278934,-99.02959455
2143973,TLAPALERIA MARAVILLAS,19.51403479,-99.05177482
8876247,TLAPALERIA MARCO,19.60262356,-99.00926429
2288476,TLAPALER페 MARIA,19.53652807,-99.01647709
2014296,TLAPALERIA MARIA ISABEL Y PLOMERIA ALBERTO,19.59536985,-99.00791341
2137558,TLAPALERIA MARIANA,19.60455824,-99.0240701
2071831,TLAPALERIA MARIBEL,19.50591216,-99.02613856
7029168,TLAPALERIA MARIELA,19.57601164,-99.06852181
2122114,TLAPALERIA MARISOL,19.69957268,-98.97773056
2094199,TLAPALERIA MARITA,19.50174235,-99.02869542
2184082,TLAPALERIA MARMI,19.67841246,-99.00101255
1975468,TLAPALERIA MAROAN,19.5361187,-99.04297922
2012582,TLAPALERIA MARTINEZ,19.65894761,-98.9952228
1997070,TLAPALERIA MARTINEZ,19.60271537,-99.00645257
2309878,TLAPALERIA MART펥EZ,19.60983052,-99.01871838
6945718,TLAPALERIA MARTINEZ FRANCO,19.55958949,-99.07721671
2035229,TLAPALERIA MASTER,19.61412283,-99.07142127
2012394,TLAPALERIA MATCON DE MEXICO,19.75862772,-98.96508506
2137186,TLAPALERIA MATERIALES CASA LOPEZ,19.52347026,-99.07099093
2188579,TLAPALERIA MATERIALES FLORES,19.57103233,-99.0577937
2163756,TLAPALERIA MEDIN,19.59870684,-99.02590607
2176932,TLAPALERIA MEDINA,19.53677888,-99.04886361
2106558,TLAPALERIA MEDINA,19.52222506,-99.05167662
2136225,TLAPALERIA MELO,19.57822464,-99.06176013
1974631,TLAPALERIA MENDEZ,19.62987915,-98.99965153
2188094,TLAPALERIA MENDOZA,19.52350595,-99.05645287
7121420,TLAPALERIA MENDOZA,19.57143737,-99.02314407
2294770,TLAPALERIA MENDOZA,19.55060211,-99.07079531
2264615,TLAPALERIA METZTITLAN,19.68371051,-98.96565819
2290496,TLAPALERIA MEXICO,19.52645895,-99.05047874
2072498,TLAPALERIA MEXICO,19.55843061,-99.0313608
2076664,TLAPALERIA MEXICO,19.50639545,-99.0289663
1996713,TLAPALERIA MEXICO,19.51773081,-99.01835632
7127537,TLAPALERIA MEXIQUENSE,19.63936162,-99.07007463
2295469,TLAPALERIA MI ANGEL,19.53852203,-99.07847517
2118953,TLAPALERIA MIGUELITO,19.53150541,-99.05417329
2105558,TLAPALERIA MIKE,19.53575552,-99.02386429
7022893,TLAPALERIA MILO,19.64838926,-98.99203637
2065530,TLAPALERIA MIRANDA,19.56000429,-99.03519107
2266786,TLAPALERIA MIRIAM,19.68244361,-98.9871557
2077796,TLAPALERIA MOCA,19.54861121,-99.08655895
7764425,TLAPALERIA MONROY,19.50134038,-99.06611263
2028530,TLAPALERIA MONROY,19.63713976,-98.9945219
1998088,TLAPALERIA MONSE,19.56842846,-99.05725163
2290914,TLAPALERIA MONTE ALBAN,19.5417979,-99.04274964
2293417,TLAPALERIA MORA,19.54859931,-99.08837017
1969476,TLAPALERIA MORELOS,19.54060333,-99.03809905
2021650,TLAPALERIA MORELOS,19.62494516,-99.07620737
2307805,TLAPALERIA MORENO,19.59675303,-98.99494841
6922773,TLAPALERIA MORENO,19.60897124,-98.99533719
8924821,TLAPALERIA MULTICOLOR,19.51756292,-99.03966335
2301932,TLAPALERIA NAJERA,19.55901805,-99.06669718
7468711,TLAPALERIA NANVER,19.50251821,-99.06264829
2285967,TLAPALERIA NAUTILUS,19.5144152,-99.03362182
2025480,TLAPALERIA NERI,19.65751481,-99.00961971
7497799,TLAPALERIA NIKO,19.5944058,-98.99450752
2179132,TLAPALERIA NO LO OLVIDES,19.57078069,-99.0395419
2030866,TLAPALERIA NOEMI,19.5027127,-99.03975294
2151183,TLAPALERIA OLAF,19.49014823,-99.03953767
2038737,TLAPALERIA OLIMPICA,19.52671492,-99.03535476
2095759,TLAPALERIA ONTARIO,19.55083879,-99.04250789
2037658,TLAPALERIA ORICAM,19.71274165,-98.96537188
2068750,TLAPALERIA ORION,19.56323442,-99.0292535
2041438,TLAPALERIA ORION,19.50142587,-99.05955863
7881987,TLAPALERIA ORQUIM,19.68063164,-98.98340136
7498096,TLAPALERIA ORTEGA,19.59974514,-99.00887467
2080673,TLAPALERIA ORTEGA,19.61780556,-99.04933302
8935988,TLAPALERIA ORTIZ,19.63831919,-99.0248719
6945789,TLAPALERIA ORTIZ,19.55804223,-99.06067506
2301455,TLAPALERIA OSTOR,19.57992107,-99.06015429
7027442,TLAPALERIA PACIFICO,19.60741257,-99.06339713
2098534,TLAPALERIA PAPELERIA Y MATERIALES PARA CONSTRUCCION,19.64684504,-98.99859402
2074489,TLAPALERIA PATY,19.61776659,-99.05296836
2188561,TLAPALERIA PATY,19.52352604,-99.0578675
2299470,TLAPALERIA PEDRAZA,19.62579547,-99.06015383
2017400,TLAPALER페 PENIEL,19.59733315,-99.01090184
2164957,TLAPALERIA PEREZ,19.5518775,-99.07266229
2006328,TLAPALERIA PEREZ,19.63872464,-99.05719175
2301375,TLAPALERIA PERLA,19.57754681,-99.06475996
2133327,TLAPALERIA PETER,19.64625917,-98.99138334
2171549,TLAPALERIA PETER,19.6837519,-99.0105403
2105437,TLAPALERIA PICHARDO,19.64349659,-98.99087497
9186595,TLAPALERIA PIFAS,19.68495812,-98.96324043
7082450,TLAPALERIA PIJA,19.6495001,-99.06293605
2084611,TLAPALERIA PINO,19.50137087,-99.02054266
2270308,TLAPALERIA PLATA,19.63086116,-99.03416367
2299165,TLAPALERIA PLAZA ZARAGOZA,19.62792975,-99.06494101
8390559,TLAPALERIA PLOMERIA LUPITA,19.61134211,-98.99311512
2135938,TLAPALERIA PLOMERIA MARIO,19.60282166,-99.02824732
7497992,TLAPALERIA PLOMERIA Y MATERIAL ELECTRICO,19.59821404,-99.00151046
2269809,TLAPALERIA PLOMHER,19.62383556,-99.02366708
1981920,TLAPALERIA PLOTME,19.51390919,-99.01706223
2288190,TLAPALERIA PONCE,19.53163996,-99.01638678
7881177,TLAPALERIA POZOR,19.71153185,-98.96541367
8883463,TLAPALERIA PRA2,19.54577469,-99.04595692
2295701,TLAPALERIA PRINCES,19.54244071,-99.06772706
2282174,TLAPALERIA PRIZO 1,19.50133145,-99.01775469
1976849,TLAPALERIA R 1,19.51999446,-99.05929817
2305112,TLAPALERIA R1,19.5480577,-99.03341333
8456859,TLAPALERIA R1,19.52001426,-99.05927996
1966150,TLAPALERIA R1 MARISOL,19.54144654,-99.03999184
2132183,TLAPALERIA RADRIGUEZ,19.49183696,-99.01688568
2288646,TLAPALERIA RAMIREZ,19.53321838,-99.01742695
2001101,TLAPALERIA RAMIREZ,19.51828793,-99.02502442
2036898,TLAPALERIA RANCHO VIEJO,19.56726329,-99.08945143
8770004,TLAPALERIA RAYO,19.61851087,-99.0182413
2070843,TLAPALERIA REGALO DE DIOS,19.50231949,-99.04705418
1983886,TLAPALERIA RENOVACION,19.59173663,-99.03747947
2012726,TLAPALERIA REYES,19.62926373,-99.05138685
7022784,TLAPALERIA REYES,19.64004343,-99.00672029
2108995,TLAPALERIA REYES,19.6073225,-99.01494781
8153595,TLAPALERIA REYNA,19.63575404,-98.99077935
2302284,TLAPALERIA RICHARD,19.57926548,-99.0526717
2053166,TLAPALERIA RIGO,19.50174373,-99.05024608
7468894,TLAPALERIA RIGO JR,19.50560358,-99.0544928
7029232,TLAPALERIA RIO FRIO,19.57369742,-99.07222717
7127855,TLAPALERIA RIOS,19.63087227,-99.05685568
2094790,TLAPALERIA RIVER,19.50372802,-99.02744877
2309845,TLAPALERIA RIVERA,19.6130816,-99.02403124
2066845,TLAPALERIA ROCHA,19.50161446,-99.04930985
8687198,TLAPALERIA ROCIO,19.61361518,-99.02972457
2077827,TLAPALERIA ROCIO,19.59481412,-99.02578632
2299594,TLAPALERIA RODRIGUEZ,19.62340212,-99.05811461
1996935,TLAPALERIA RODRIGUEZ,19.5415565,-99.06355554
2007186,TLAPALERIA RODRIGUEZ,19.65923142,-98.99952599
2178479,TLAPALERIA ROFER,19.57332055,-99.03838827
2289041,TLAPALERIA ROJAS,19.54025995,-99.03233153
2311903,TLAPALERIA ROJO,19.63994411,-98.99133634
6946082,TLAPALERIA ROLEYVA,19.50959301,-99.0767378
8905412,TLAPALERIA ROMERO,19.59027776,-99.04493127
2046847,TLAPALERIA RORIGUEZ,19.59735897,-99.01293898
2033596,TLAPALERIA ROSITA,19.71171958,-98.9693003
2187715,TLAPALERIA ROSSY,19.59449009,-99.04932818
2072763,TLAPALERIA ROXANA,19.55292545,-99.09183584
2289937,TLAPALERIA RUIZ,19.52519734,-99.03747126
2191373,TLAPALERIA SAGITARIO,19.55379258,-99.02021382
1974774,TLAPALERIA SAGITARIO 8,19.55162358,-99.01605195
2301103,TLAPALERIA SALINAS,19.59753758,-99.04169046
2079298,TLAPALERIA SALTILLO,19.54818536,-99.07946994
2069698,TLAPALERIA SAN AGUSTIN,19.5285194,-99.03974404
7882664,TLAPALERIA SAN ANTONIO,19.68951713,-98.97127634
2031097,TLAPALERIA SAN ANTONIO,19.56550321,-99.01908282
2264930,TLAPALERIA SAN ANTONIO,19.68221896,-98.98111186
1976446,TLAPALERIA SAN CARLOS,19.57859863,-99.04761186
2025403,TLAPALERIA SAN CARLOS,19.52747701,-99.04963069
2020949,TLAPALERIA SAN FRANCISCO,19.55299263,-99.08472774
2136748,TLAPALERIA SAN FRANCISCO,19.68492691,-98.98702864
2042850,TLAPALER페 SAN FRANCISCO,19.61702918,-99.07533349
9131932,TLAPALERIA SAN JOSE,19.53857013,-99.04826241
1996397,TLAPALERIA SAN JOSE,19.5697913,-99.05353224
2084758,TLAPALER페 SAN JOSE,19.51191628,-99.08008998
6946127,TLAPALERIA SAN JOSE,19.51168998,-99.07952958
8883733,TLAPALERIA SAN JOSE 3,19.53159412,-99.05065197
2075431,TLAPALERIA SAN JUAN,19.52047678,-99.0878322
2175956,TLAPALERIA SAN JUAN,19.59734499,-99.02370403
2118249,TLAPALERIA SAN JUAN,19.51474095,-99.04724232
2153560,TLAPALERIA SAN JUAN,19.60058358,-99.04535279
2296616,TLAPALERIA SAN JUAN,19.50880634,-99.06685518
8935890,TLAPALERIA SAN JUAN,19.62145976,-99.03383578
8040729,TLAPALERIA SAN JUDAS TADEO,19.56262086,-99.01617836
7027900,TLAPALERIA SAN JUDAS TADEO.,19.61443017,-99.06420094
2050220,TLAPALERIA SAN LUIS,19.53577966,-99.08626719
2059575,TLAPALERIA SAN MARCOS,19.52259253,-99.03734175
2105061,TLAPALERIA SAN MARTIN,19.55035965,-99.04018023
2094344,TLAPALERIA SAN MARTIN,19.68346385,-98.9675923
8289831,TLAPALERIA SAN MARTIN,19.68493496,-98.9700417
1977136,TLAPALERIA SAN MARTIN,19.54478992,-99.01970493
2064283,TLAPALERIA SAN MARTIN,19.52934187,-99.03684842
2105575,TLAPALERIA SAN MATEO,19.68189834,-98.96975796
2123152,TLAPALERIA SAN MIGUEL,19.49167347,-99.0173971
2086491,TLAPALERIA SAN MIGUEL,19.51036714,-99.08278111
8915180,TLAPALERIA SAN PABLO,19.6703088,-98.95813512
2055219,TLAPALERIA SAN PEDRO,19.53508424,-99.07879254
2009275,TLAPALERIA SAN PEDRO,19.49023991,-99.03089332
2061339,TLAPALERIA SAN RAFAEL,19.71050634,-98.97194134
7029103,TLAPALERIA SANCHEZ,19.57729673,-99.07033442
9068287,TLAPALERIA SANDY,19.50094458,-99.02765698
2138276,TLAPALERIA SANITARIOS TEPEYAC,19.51692767,-99.05460634
2263683,TLAPALERIA SANTA CRUZ,19.70036431,-98.94378971
2110975,TLAPALERIA SANTA CRUZ,19.56518995,-99.06140075
2120426,TLAPALERIA SANTA CRUZ,19.71040776,-98.96689566
2095595,TLAPALERIA SANTA CRUZ,19.5758647,-99.06416883
2135504,TLAPALERIA SANTA CRUZ,19.60929033,-98.99680371
1999987,TLAPALERIA SANTA MARIA,19.7650536,-98.96682774
2306353,TLAPALERIA SANTIAGO,19.56140632,-99.02344999
2179260,TLAPALERIA SAUL,19.56987465,-99.03952061
7027733,TLAPALERIA SAURED,19.62011943,-99.0531564
2168385,TLAPALERIA SELENE,19.69259616,-98.99930203
2285277,TLAPALERIA SERGIO,19.51938612,-99.01704419
7518300,TLAPALERIA SIETE LEONES,19.55232564,-99.03491255
7881784,TLAPALERIA SILVERIO,19.689554,-98.9782591
8924329,TLAPALERIA SILVIA,19.57262848,-99.07050162
2063505,TLAPALERIA SIM,19.62432879,-98.99771488
1994930,TLAPALERIA SIMON C,19.54872568,-99.04811832
8934786,TLAPALERIA SIN NOMBRE,19.74144098,-98.95075734
8769339,TLAPALERIA SIN NOMBRE,19.5610895,-99.06160538
7498507,TLAPALERIA SIN NOMBRE,19.60047759,-99.01016806
8348670,TLAPALERIA SIN NOMBRE,19.64044773,-98.99878149
2310209,TLAPALERIA SIN NOMBRE,19.60818768,-99.01370444
8457569,TLAPALERIA SIN NOMBRE,19.61676711,-99.01908982
2286085,TLAPALERIA SIN NOMBRE,19.5169778,-99.03303062
2269181,TLAPALERIA SIN NOMBRE,19.63633794,-99.01873234
2005178,TLAPALERIA SIN NOMBRE,19.76319673,-98.96265185
2268962,TLAPALERIA SIN NOMBRE,19.63279593,-99.02287763
7122511,TLAPALERIA SIN NOMBRE,19.5836208,-99.04407521
2034226,TLAPALERIA SIN NOMBRE,19.52869028,-99.0337712
8278899,TLAPALERIA SIN NOMBRE,19.58611998,-99.05264142
2158236,TLAPALERIA SIN NOMBRE,19.54974686,-99.07460363
2189987,TLAPALERIA SIN NOMBRE,19.58554727,-99.05059101
2191241,TLAPALERIA SIN NOMBRE,19.52696507,-99.05643548
7029052,TLAPALERIA SIN NOMBRE,19.5776854,-99.06739982
2290783,TLAPALERIA SIN NOMBRE,19.53829449,-99.04771806
2089415,TLAPALERIA SIN NOMBRE,19.54450387,-99.07656951
2309325,TLAPALERIA SIN NOMBRE,19.6247113,-99.00651063
7456706,TLAPALERIA SIN NOMBRE,19.53507296,-99.04235376
2179172,TLAPALER페 SIN NOMBRE,19.53588474,-99.04687432
2311281,TLAPALERIA SIN NOMBRE,19.61096458,-98.99084479
2291359,TLAPALERIA SIN NOMBRE,19.5618446,-99.08777726
2196223,TLAPALERIA SIN NOMBRE,19.60993968,-99.03679096
2180767,TLAPALERIA SIN NOMBRE,19.53800904,-99.0471433
7809688,TLAPALERIA SIN NOMBRE,19.63983179,-99.03752642
2051685,TLAPALERIA SIN NOMBRE,19.6354061,-99.03374281
7007756,TLAPALERIA SOLIS,19.55224505,-99.08090723
2107879,TLAPALERIA SOLIS,19.49479302,-99.02436667
2086330,TLAPALERIA SONORA,19.52470114,-99.04597703
2294269,TLAPALERIA SORIANO,19.54872794,-99.06624424
2155632,TLAPALERIA SOTO,19.52649917,-99.01897454
2192416,TLAPALERIA SUAREZ,19.69090526,-98.99820368
2286906,TLAPALERIA SUJEY,19.50877166,-99.04946356
7029100,TLAPALERIA SURTIDORA LA GRANDE,19.60079875,-99.05370341
2308993,TLAPALERIA TAURO,19.61519571,-99.00254854
2150550,TLAPALERIA TAURO,19.60067419,-99.04557429
2018005,TLAPALERIA TAURO,19.53108206,-99.04658921
2046717,TLAPALERIA TECAMAC,19.71276898,-98.97422207
8769684,TLAPALERIA TED,19.66519251,-99.0136334
7907215,TLAPALERIA TELLEZ,19.77131317,-98.98421256
2060864,TLAPALERIA TELLEZ,19.63986191,-98.98216913
2304523,TLAPALERIA TEXAS,19.59687049,-99.01963747
2008261,TLAPALERIA TIZOC,19.64249025,-98.99803545
8936149,TLAPALERIA TLAPA,19.63337551,-99.0173749
1986208,TLAPALERIA TLAPAMANGA,19.60912566,-98.98816325
2106982,TLAPALERIA TLAPAMEX,19.5149229,-99.07254171
8278263,TLAPALERIA TODO HOGAR,19.60874153,-99.00858087
2166352,TLAPALERIA TOKIO,19.50777967,-99.06064063
2065008,TLAPALERIA TOLOTZIN,19.56209152,-99.03021413
8425258,TLAPALERIA TONA,19.68157273,-99.04030655
2068330,TLAPALERIA TONITO,19.50367979,-99.02005982
2061156,TLAPALERIA TORNIMUNDO,19.52122186,-99.03671569
2033688,TLAPALERIA TORRES,19.50342548,-99.06217598
2270292,TLAPALERIA TORRES,19.63216707,-99.03485617
8936386,TLAPALERIA TORRES,19.63233133,-99.01441549
7880868,TLAPALERIA TORRES,19.71343161,-98.9755607
2066718,TLAPALERIA TORRES,19.55998815,-99.03515213
7469699,TLAPALERIA TREBOL,19.50837269,-99.04336675
2029009,TLAPALERIA TRES HERMANOS,19.56515484,-99.01831833
7154990,TLAPALERIA TRUMON,19.58632774,-99.01606657
2268144,TLAPALERIA UGALDE,19.63768752,-99.04189274
8943760,TLAPALERIA UNION,19.61069037,-99.0669618
8924332,TLAPALERIA VALDEZ,19.56854893,-99.04898654
2086140,TLAPALERIA VARGAS,19.6344107,-98.98475501
1979145,TLAPALERIA VAZQUEZ,19.51523633,-99.01820761
2034719,TLAPALERIA VAZQUEZ,19.61165054,-99.07302814
2264035,TLAPALERIA VAZQUEZ,19.69621751,-98.97621762
2123901,TLAPALERIA VEGA,19.49842437,-99.02145459
8040847,TLAPALERIA VEGA,19.57859863,-99.04761186
2066654,TLAPALERIA VELASCO,19.50161271,-99.04930525
2290140,TLAPALERIA VENUS,19.54265626,-99.05735102
2285598,TLAPALERIA VICKY,19.51966416,-99.02212168
7456063,TLAPALERIA VICKY,19.5355582,-99.03659943
2136855,TLAPALERIA VICKY,19.60282166,-99.02824732
2115191,TLAPALERIA VICTORIA,19.55867428,-99.06411329
2110730,TLAPALERIA VIKINGO,19.63335521,-99.02768318
8882357,TLAPALERIA -VILLAS,19.51678549,-99.06594739
2153693,TLAPALERIA VIRGO,19.49914412,-99.03718065
2264910,TLAPALERIA VISTA HERMOSA,19.67628186,-98.98608225
2266983,TLAPALERIA VIVA MEXICO,19.67989899,-99.02731012
7022789,TLAPALERIA WOODY,19.63869886,-98.98743576
2161689,TLAPALERIA Y ARTICULOS PARA PLOMERIA SIN NOMBRE,19.55251601,-99.07702298
6986424,TLAPALERIA Y CERRAJERIA OREB,19.62222683,-99.02475509
2099013,TLAPALERIA Y CRISTALERIA JIMY,19.53229727,-99.01955407
2269982,TLAPALERIA Y FERRETERIA,19.62320912,-99.03598689
2018107,TLAPALER페 Y FERRETER페,19.53775036,-99.02876953
2108280,TLAPALERIA Y FERRETERIA,19.51351757,-99.07365218
2267869,TLAPALERIA Y FERRETERIA,19.65631272,-99.0372644
1985002,TLAPALERIA Y FERRETERIA 4 HERMANOS,19.77382549,-98.9824057
2006397,TLAPALERIA Y FERRETERIA AJOLOAPAN,19.7638853,-98.97345978
2058556,TLAPALERIA Y FERRETERIA ALESA,19.49768899,-99.04766981
8959835,TLAPALERIA Y FERRETERIA ALKAVIAL,19.64375923,-99.06664996
2098604,TLAPALERIA Y FERRETERIA ARIAS,19.61286233,-99.05088447
2063098,TLAPALERIA Y FERRETERIA BETTY,19.53071717,-99.03911987
2124163,TLAPALERIA Y FERRETERIA CASA PITER,19.51245469,-99.04763654
2026499,TLAPALERIA Y FERRETERIA DEL TIGRE,19.54074755,-99.06631828
1991485,TLAPALERIA Y FERRETERIA DIEGO,19.50968147,-99.06430885
2153361,TLAPALERIA Y FERRETERIA EL CISNE,19.61806612,-99.01587031
2163505,TLAPALERIA Y FERRETERIA EL GALLO,19.59914908,-99.02663445
2177303,TLAPALERIA Y FERRETERIA EL UNIVERSO,19.57358784,-99.0404038
1966984,TLAPALERIA Y FERRETERIA FAISANES,19.60486303,-99.02586515
2284320,TLAPALERIA Y FERRETERIA FERRESOLIS,19.49894717,-99.0348775
2087889,TLAPALERIA Y FERRETERIA GOMEZ,19.50396646,-99.05037793
2287144,TLAPALERIA Y FERRETERIA GOMEZ HERMANOS,19.51646258,-99.04577091
1998071,TLAPALERIA Y FERRETERIA JR,19.77429489,-98.97318271
2078633,TLAPALERIA Y FERRETERIA LA EJIDAL,19.61284868,-99.0534628
2039735,TLAPALERIA Y FERRETERIA LA ESTRELLA,19.52324727,-99.03299748
2086427,TLAPALERIA Y FERRETERIA LA FAVORITA,19.54568135,-99.07255151
2158734,TLAPALERIA Y FERRETERIA LA IMPERIAL,19.51984724,-99.07960353
7468379,TLAPALERIA Y FERRETERIA LA LUZ,19.50818845,-99.07024389
2009633,TLAPALERIA Y FERRETERIA LA PROVIDENCIA,19.75916363,-98.96973574
9197624,TLAPALERIA Y FERRETERIA LOS PIRULES,19.62969292,-99.03361516
2017381,TLAPALERIA Y FERRETERIA MAGO,19.76703434,-98.952523
2288944,TLAPALERIA Y FERRETERIA MELINET SOLUCTI흁S,19.53738576,-99.03755674
1975367,TLAPALERIA Y FERRETERIA OMAR,19.55124502,-99.01511235
6947242,TLAPALERIA Y FERRETERIA PASO DE CORTES,19.63545855,-98.99213204
2065213,TLAPALERIA Y FERRETERIA PUENTE,19.69076769,-98.97380235
2269842,TLAPALERIA Y FERRETERIA SIN NOMBRE,19.63113786,-99.03096584
7029286,TLAPALERIA Y FERRETERIA TOMY,19.57232096,-99.07155323
2045762,TLAPALERIA Y FERRETERIA TRES HERMANOS,19.64488191,-98.98732492
2103277,TLAPALERIA Y FERRETERIA VEGA,19.64812075,-98.99787523
2154126,TLAPALERIA Y FERRETERIA XALOSTOC,19.51978748,-99.07725573
2184375,TLAPALERIA Y FERRETRIA  TUBOS Y CONEXIONES,19.5196862,-99.02878131
2099881,TLAPALERIA Y HERRERIA SIN NOMBRE,19.6446728,-99.00292127
8278568,TLAPALERIA Y INSTALACIONES,19.6344107,-98.98475501
9079881,TLAPALERIA Y JARCERIA ARIAS,19.68031417,-98.9792137
2296233,TLAPALER페 Y JARCER페 EDWIN,19.5104422,-99.08040232
2296238,TLAPALER페 Y JARCER페 EDWIN,19.51057465,-99.08073047
2301886,TLAPALERIA Y JARCIERIA,19.56592691,-99.06333989
8854392,TLAPALERIA Y JARCIERIA DEL VALLE,19.51455584,-99.05906789
2020070,TLAPALERIA Y JARCIERIA EL TREBOL,19.63265605,-99.07481451
2295812,TLAPALERIA Y JARCIERIA VALDEZ,19.50898815,-99.07665539
6937721,TLAPALERIA Y MATERIAL DE PLOMERIA,19.62444421,-99.02547328
2092068,TLAPALERIA Y MATERIAL PARA CONSTRUCCION SAN CARLOS,19.52310819,-99.04291722
2161449,TLAPALERIA Y MATERIALES  JARO ROBERT SA DE CV,19.54641752,-99.02552149
2019369,TLAPALERIA Y MATERIALES ALARCON,19.74881657,-98.94857475
2075951,TLAPALERIA Y MATERIALES AZCATEPEC,19.68485271,-98.97174539
2108840,TLAPALERIA Y MATERIALES CASA BLANCA,19.51317269,-99.07331576
2269710,TLAPALERIA Y MATERIALES DE CONSTRUCCION,19.62310102,-99.01996195
2291642,TLAPALERIA Y MATERIALES DE CONSTRUCCION NU헨Z,19.56810087,-99.09310416
2075570,TLAPALERIA Y MATERIALES DE CONSTRUCCION ROMERO,19.63596915,-99.00998336
1967034,TLAPALERIA Y MATERIALES DIEGO,19.56493432,-99.0514751
1986996,TLAPALERIA Y MATERIALES DON GABRIEL,19.51160856,-99.01672998
2104421,TLAPALERIA Y MATERIALES EL PUENTE,19.68757951,-98.97829617
2082765,TLAPALERIA Y MATERIALES EL SURTIDOR,19.6360275,-98.98223273
2055646,TLAPALERIA Y MATERIALES LA JOYA,19.61527382,-99.06970675
2119077,TLAPALERIA Y MATERIALES MARTELL,19.60397865,-99.06357716
2096610,TLAPALERIA Y MATERIALES MORA,19.68205598,-98.96721981
2116344,TLAPALERIA Y MATERIALES PARA CONSTRUCCI흁,19.51474095,-99.04724232
2062314,TLAPALERIA Y MATERIALES PARA CONSTRUCCION CASA VILLA,19.64185384,-98.98484633
2033525,TLAPALERIA Y MATERIALES PARA CONSTRUCCION CHINO,19.58245642,-99.06280309
2069315,TLAPALERIA Y MATERIALES PARA CONSTRUCCION EL CONSTRUCTOR,19.6304626,-98.99781232
7128279,TLAPALERIA Y MATERIALES PARA CONSTRUCCION EL GUERO,19.63471633,-99.06032751
8548799,TLAPALERIA Y MATERIALES PARA CONSTRUCCION EMMA,19.59343171,-98.99778091
2303463,TLAPALERIA Y MATERIALES PARA CONSTRUCCION HUGO,19.56921887,-99.03691193
2308343,TLAPALERIA Y MATERIALES PARA CONSTRUCCION MARTINEZ,19.61003039,-99.00127286
2058890,TLAPALERIA Y MATERIALES PARA CONSTRUCCION RUIZ,19.52035248,-99.03781999
2114479,TLAPALERIA Y MATERIALES PARA CONSTRUCCION VISTA HERMOSA,19.70783773,-98.96569006
2306062,TLAPALERIA Y MATERIALES PARA CONTRUCION SIN NOMBRE,19.5614988,-99.02046478
7082174,TLAPALERIA Y MATERIALES PARA LA CONSTRUCION LOPEZ,19.63868783,-99.06611591
8924224,TLAPALERIA Y PAPELERIA,19.56848544,-99.06147582
2003882,TLAPALERIA Y PAPELERIA LOS 4 HERMANOS,19.59938372,-99.00509222
2066532,TLAPALERIA Y PAPELERIA LOS ARCOS,19.55313934,-99.0928828
2098989,TLAPALERIA Y PAPELERIA VELETA,19.60736148,-99.01652693
2138614,TLAPALERIA Y PLOMERIA,19.53002976,-99.03646506
2002312,TLAPALERIA Y PLOMERIA ARIES,19.63093656,-99.07057015
2191628,TLAPALERIA Y PLOMERIA CAMBE L,19.66675074,-99.00321823
7022421,TLAPALERIA Y PLOMERIA FERROMEX,19.64067216,-99.01244813
2148055,TLAPALERIA Y PLOMERIA JBC,19.51348647,-99.05356533
2134642,TLAPALERIA Y PLOMERIA LUPITA,19.61151952,-98.99422508
2040235,TLAPALERIA Y PLOMERIA MORELOS,19.62030932,-99.07415027
2016065,TLAPALERIA Y PLOMERIA PADILLA,19.62148888,-99.00125351
2262161,TLAPALERIA Y PLOMERIA SAN JEROS,19.74818069,-98.95352346
2057333,TLAPALERIA Y PLOMERIA YESHUA,19.71094765,-98.97254825
9258750,TLAPALERIA Y TORNILLERIA,19.63106038,-99.02814154
2155068,TLAPALERIA Y VARIOS LA CONTINENTAL,19.53807423,-99.07750837
8882382,TLAPALERIA Y VENTA DE POLLO,19.54741803,-99.08660633
7907293,TLAPALERIA YAMILETH Y HERMANOS,19.75822273,-98.94805609
2270244,TLAPALERIA YARANDYS,19.62625087,-99.03782964
8406525,TLAPALERIA YARIANDY,19.61480943,-99.07204247
7127813,TLAPALERIA YARIS,19.62455679,-99.07080259
2308153,TLAPALERIA YAYO,19.61057392,-98.99653539
